[{"code": "BK09", "name": "Lassen & Hennigs", "category": "Deli / Bodega", "price": 1, "lat": 40.69497028956407, "long": -73.99485733614807, "radii": 496, "photos": 0}, {"code": "BK09", "name": "Five Guys", "category": "Burger Joint", "price": 1, "lat": 40.69464577757514, "long": -73.99381926824576, "radii": 496, "photos": 0}, {"code": "BK09", "name": "Chipotle Mexican Grill", "category": "Mexican Restaurant", "price": 1, "lat": 40.694349307551605, "long": -73.99183062392524, "radii": 496, "photos": 0}, {"code": "BK09", "name": "Heights Falafel", "category": "Falafel Restaurant", "price": 1, "lat": 40.69844634300942, "long": -73.99250785148237, "radii": 496, "photos": 0}, {"code": "BK09", "name": "Penny Bridge", "category": "Deli / Bodega", "price": 1, "lat": 40.69743344473067, "long": -73.99264470885065, "radii": 496, "photos": 0}, {"code": "BK09", "name": "Bamboo Bites", "category": "Food Truck", "price": 1, "lat": 40.69504747901711, "long": -73.99939610479981, "radii": 496, "photos": 0}, {"code": "BK09", "name": "Fascati Pizza", "category": "Pizza Place", "price": 1, "lat": 40.69835547472359, "long": -73.99252179997475, "radii": 496, "photos": 0}, {"code": "BK09", "name": "Gregory's Coffee", "category": "Caf\u00e9", "price": 1, "lat": 40.69356, "long": -73.99067, "radii": 496, "photos": 0}, {"code": "BK09", "name": "Brooklyn Heights Deli", "category": "Deli / Bodega", "price": 1, "lat": 40.69135540592574, "long": -73.99600854870859, "radii": 496, "photos": 0}, {"code": "BK09", "name": "Maison Kayser", "category": "Bakery", "price": 1, "lat": 40.69216629075083, "long": -73.99109172940383, "radii": 496, "photos": 0}, {"code": "BK09", "name": "Dos Toros Taquer\u00eda", "category": "Burrito Place", "price": 1, "lat": 40.691957, "long": -73.991387, "radii": 496, "photos": 0}, {"code": "BK09", "name": "Montague Street Bagels", "category": "Bagel Shop", "price": 1, "lat": 40.69500736963899, "long": -73.9950757013036, "radii": 496, "photos": 0}, {"code": "BK09", "name": "Teresa's Restaurant", "category": "Eastern European Restaurant", "price": 1, "lat": 40.695238876311734, "long": -73.9960558355363, "radii": 496, "photos": 0}, {"code": "BK09", "name": "Lichee Nut", "category": "Chinese Restaurant", "price": 1, "lat": 40.69437415319338, "long": -73.9927109788208, "radii": 496, "photos": 0}, {"code": "BK09", "name": "honeygrow", "category": "Salad Place", "price": 1, "lat": 40.69259944519508, "long": -73.99140945063183, "radii": 496, "photos": 0}, {"code": "BK09", "name": "Antonio's Pizzeria", "category": "Pizza Place", "price": 1, "lat": 40.69289365256406, "long": -73.99058652105266, "radii": 496, "photos": 0}, {"code": "BK09", "name": "Plymouth Cafe", "category": "Deli / Bodega", "price": 1, "lat": 40.69812636312498, "long": -73.99264919906126, "radii": 496, "photos": 0}, {"code": "BK09", "name": "Heights Deli & Convenience", "category": "Deli / Bodega", "price": 1, "lat": 40.69518451444006, "long": -73.99578532096776, "radii": 496, "photos": 0}, {"code": "BK09", "name": "Dunkin'", "category": "Donut Shop", "price": 1, "lat": 40.6922, "long": -73.991345, "radii": 496, "photos": 0}, {"code": "BK09", "name": "Court Order", "category": "Sandwich Place", "price": 1, "lat": 40.692261525419504, "long": -73.99104634150255, "radii": 496, "photos": 0}, {"code": "BK09", "name": "Dunkin'", "category": "Donut Shop", "price": 1, "lat": 40.69474503529761, "long": -73.99128872889801, "radii": 496, "photos": 0}, {"code": "BK09", "name": "Happy Days Diner", "category": "Diner", "price": 1, "lat": 40.69453867483069, "long": -73.99334130401633, "radii": 496, "photos": 0}, {"code": "BK09", "name": "Subway Sandwiches", "category": "Sandwich Place", "price": 1, "lat": 40.69211, "long": -73.991502, "radii": 496, "photos": 0}, {"code": "BK09", "name": "Fortune House", "category": "Chinese Restaurant", "price": 1, "lat": 40.698411434008214, "long": -73.99254201285272, "radii": 496, "photos": 0}, {"code": "BK09", "name": "Gallito's Mexican kitchen", "category": "Mexican Restaurant", "price": 1, "lat": 40.694634, "long": -73.993732, "radii": 496, "photos": 0}, {"code": "BK09", "name": "NYC Sliders", "category": "Burger Joint", "price": 1, "lat": 40.69760810861431, "long": -73.9944863319397, "radii": 496, "photos": 0}, {"code": "BK09", "name": "Thai Food on Wheels", "category": "Food Truck", "price": 1, "lat": 40.69384621348598, "long": -73.99254976644094, "radii": 496, "photos": 0}, {"code": "BK09", "name": "Tazzini", "category": "Caf\u00e9", "price": 1, "lat": 40.697607, "long": -73.993332, "radii": 496, "photos": 0}, {"code": "BK09", "name": "Han's Market", "category": "Deli / Bodega", "price": 1, "lat": 40.697618124661616, "long": -73.99326244961915, "radii": 496, "photos": 0}, {"code": "BK09", "name": "Hale & Hearty", "category": "Soup Place", "price": 1, "lat": 40.69311769833191, "long": -73.99092728588771, "radii": 496, "photos": 0}, {"code": "BK09", "name": "Fresh Cafe Bar", "category": "Sandwich Place", "price": 1, "lat": 40.697831, "long": -73.992714, "radii": 496, "photos": 0}, {"code": "BK09", "name": "Subway Sandwiches", "category": "Sandwich Place", "price": 1, "lat": 40.69407139730732, "long": -73.99021977491533, "radii": 496, "photos": 0}, {"code": "BK09", "name": "Great Wall Chinese Food", "category": "Chinese Restaurant", "price": 1, "lat": 40.698983696296274, "long": -73.99218529980111, "radii": 496, "photos": 0}, {"code": "BK09", "name": "C&H Halal Foods Cart", "category": "Food Truck", "price": 1, "lat": 40.69369057290146, "long": -73.99032881455878, "radii": 496, "photos": 0}, {"code": "BK09", "name": "Dellarocco's", "category": "Pizza Place", "price": 2, "lat": 40.69499209990746, "long": -73.99592429396137, "radii": 496, "photos": 0}, {"code": "BK09", "name": "Sushi Gallery", "category": "Sushi Restaurant", "price": 2, "lat": 40.69759512293347, "long": -73.99323607647035, "radii": 496, "photos": 0}, {"code": "BK09", "name": "Saketumi Asian Bistro", "category": "Asian Restaurant", "price": 2, "lat": 40.694909513391174, "long": -73.99457785175119, "radii": 496, "photos": 0}, {"code": "BK09", "name": "Iron Chef House", "category": "Japanese Restaurant", "price": 2, "lat": 40.697405738767394, "long": -73.99256031665585, "radii": 496, "photos": 0}, {"code": "BK09", "name": "Lantern Thai Kitchen", "category": "Thai Restaurant", "price": 2, "lat": 40.69516848345413, "long": -73.99562112798172, "radii": 496, "photos": 0}, {"code": "BK09", "name": "River Deli", "category": "Italian Restaurant", "price": 2, "lat": 40.693713210456345, "long": -73.99843526257156, "radii": 496, "photos": 0}, {"code": "BK09", "name": "Clark's Restaurant", "category": "Diner", "price": 2, "lat": 40.69753293863099, "long": -73.9930435186682, "radii": 496, "photos": 0}, {"code": "BK09", "name": "Le Pain Quotidien", "category": "Bakery", "price": 2, "lat": 40.69510069703266, "long": -73.99454265832895, "radii": 496, "photos": 0}, {"code": "BK09", "name": "B.GOOD", "category": "Fast Food Restaurant", "price": 2, "lat": 40.69469669607069, "long": -73.99380026153258, "radii": 496, "photos": 0}, {"code": "BK09", "name": "Ozu Japanese Cuisine & Lounge", "category": "Asian Restaurant", "price": 2, "lat": 40.697513, "long": -73.993369, "radii": 496, "photos": 0}, {"code": "BK09", "name": "Pinto", "category": "Thai Restaurant", "price": 2, "lat": 40.694758432958814, "long": -73.994280065657, "radii": 496, "photos": 0}, {"code": "BK09", "name": "Curry Heights", "category": "Indian Restaurant", "price": 2, "lat": 40.69357223828141, "long": -73.99226545349896, "radii": 496, "photos": 0}, {"code": "BK09", "name": "Kogane", "category": "Ramen Restaurant", "price": 2, "lat": 40.69852472195026, "long": -73.99245261782887, "radii": 496, "photos": 0}, {"code": "BK09", "name": "Nanatori", "category": "Sushi Restaurant", "price": 2, "lat": 40.69452395493607, "long": -73.99267602133101, "radii": 496, "photos": 0}, {"code": "BK09", "name": "MontyQ's Brick Oven Pizza", "category": "Pizza Place", "price": 2, "lat": 40.69436997583063, "long": -73.99287901277606, "radii": 496, "photos": 0}, {"code": "BK09", "name": "Park Plaza Diner", "category": "Diner", "price": 2, "lat": 40.69779079038551, "long": -73.9916819489333, "radii": 496, "photos": 0}, {"code": "BK09", "name": "Caffe Buon Gusto", "category": "Italian Restaurant", "price": 2, "lat": 40.69461587788547, "long": -73.99338165894984, "radii": 496, "photos": 0}, {"code": "BK09", "name": "Heights Cafe", "category": "American Restaurant", "price": 2, "lat": 40.69520082413794, "long": -73.99589275866926, "radii": 496, "photos": 0}, {"code": "BK09", "name": "Gallito's Kitchen", "category": "Mexican Restaurant", "price": 2, "lat": 40.6946138064606, "long": -73.99374387205967, "radii": 496, "photos": 0}, {"code": "BK09", "name": "Ani Sushi", "category": "Sushi Restaurant", "price": 2, "lat": 40.69463435094354, "long": -73.99364238035173, "radii": 496, "photos": 0}, {"code": "BK09", "name": "All In One Mart", "category": "Deli / Bodega", "price": 2, "lat": 40.698083927594745, "long": -73.99270434703357, "radii": 496, "photos": 0}, {"code": "BK09", "name": "sushi garden", "category": "Sushi Restaurant", "price": 2, "lat": 40.692773, "long": -73.992718, "radii": 496, "photos": 0}, {"code": "BK09", "name": "Habibi Middle Eastern Cuisine", "category": "Middle Eastern Restaurant", "price": 2, "lat": 40.698507, "long": -73.992504, "radii": 496, "photos": 0}, {"code": "BK09", "name": "Bevacco", "category": "Italian Restaurant", "price": 3, "lat": 40.69934693656375, "long": -73.99213688652104, "radii": 496, "photos": 0}, {"code": "BK09", "name": "Chip Shop", "category": "Steakhouse", "price": 4, "lat": 40.69498284997109, "long": -73.99594140301738, "radii": 496, "photos": 0}, {"code": "BK17", "name": "Roll N Roaster", "category": "Sandwich Place", "price": 1, "lat": 40.584143455001524, "long": -73.93955540497697, "radii": 1600, "photos": 0}, {"code": "BK17", "name": "Bionic Bagels", "category": "Bagel Shop", "price": 1, "lat": 40.592647864562466, "long": -73.94019897676507, "radii": 1600, "photos": 0}, {"code": "BK17", "name": "Chopstix", "category": "Chinese Restaurant", "price": 1, "lat": 40.591398981532976, "long": -73.94031306073916, "radii": 1600, "photos": 0}, {"code": "BK17", "name": "V & S Pizza", "category": "Pizza Place", "price": 1, "lat": 40.58340642198233, "long": -73.95088634944352, "radii": 1600, "photos": 0}, {"code": "BK17", "name": "My House Burgers & Shakes", "category": "Burger Joint", "price": 1, "lat": 40.58663154351072, "long": -73.95255279814349, "radii": 1600, "photos": 0}, {"code": "BK17", "name": "Coffee Spot Cafe", "category": "Caf\u00e9", "price": 1, "lat": 40.587258106656215, "long": -73.95278350925717, "radii": 1600, "photos": 0}, {"code": "BK17", "name": "Jimmy's Famous Heroes", "category": "Sandwich Place", "price": 1, "lat": 40.58412644421969, "long": -73.95081094488873, "radii": 1600, "photos": 0}, {"code": "BK17", "name": "Delmar Pizzeria", "category": "Pizza Place", "price": 1, "lat": 40.58618428867335, "long": -73.95215181125302, "radii": 1600, "photos": 0}, {"code": "BK17", "name": "Soup -N- Burger", "category": "Burger Joint", "price": 1, "lat": 40.583811019704164, "long": -73.94976040320519, "radii": 1600, "photos": 0}, {"code": "BK17", "name": "Bagel Boy", "category": "Bagel Shop", "price": 1, "lat": 40.58797203161639, "long": -73.95311212672821, "radii": 1600, "photos": 0}, {"code": "BK17", "name": "Dunkin'", "category": "Donut Shop", "price": 1, "lat": 40.59656315842759, "long": -73.93368240798662, "radii": 1600, "photos": 0}, {"code": "BK17", "name": "T&D Bakery", "category": "Bakery", "price": 1, "lat": 40.59979743710705, "long": -73.94824654289077, "radii": 1600, "photos": 0}, {"code": "BK17", "name": "Del Mar Pizzeria & Restaurant", "category": "Pizza Place", "price": 1, "lat": 40.58625973091978, "long": -73.9520695166534, "radii": 1600, "photos": 0}, {"code": "BK17", "name": "G & S Pork Store", "category": "Deli / Bodega", "price": 1, "lat": 40.60008420178529, "long": -73.94530230198605, "radii": 1600, "photos": 0}, {"code": "BK17", "name": "Zee Bagels", "category": "Bagel Shop", "price": 1, "lat": 40.60036342808386, "long": -73.9436358669437, "radii": 1600, "photos": 0}, {"code": "BK17", "name": "Gerritsen Beach Bagels", "category": "Bagel Shop", "price": 1, "lat": 40.59305539598851, "long": -73.92559432081805, "radii": 1600, "photos": 0}, {"code": "BK17", "name": "Ph\u1edf Ho\u00e0i Restaurant", "category": "Vietnamese Restaurant", "price": 1, "lat": 40.599216638985304, "long": -73.95242240802057, "radii": 1600, "photos": 0}, {"code": "BK17", "name": "Knapp Street Bagels", "category": "Deli / Bodega", "price": 1, "lat": 40.58645907030092, "long": -73.9313031735248, "radii": 1600, "photos": 0}, {"code": "BK17", "name": "Knapp St Pizza", "category": "Pizza Place", "price": 1, "lat": 40.599941725917574, "long": -73.93383251054117, "radii": 1600, "photos": 0}, {"code": "BK17", "name": "Subway Restaurant", "category": "Sandwich Place", "price": 1, "lat": 40.589985, "long": -73.939343, "radii": 1600, "photos": 0}, {"code": "BK17", "name": "Safir Bakery", "category": "Bakery", "price": 1, "lat": 40.60022891508354, "long": -73.94389002747907, "radii": 1600, "photos": 0}, {"code": "BK17", "name": "Omiya Sushi", "category": "Japanese Restaurant", "price": 1, "lat": 40.599785490416004, "long": -73.94786317239898, "radii": 1600, "photos": 0}, {"code": "BK17", "name": "Vito's Bakery & Grocery", "category": "Bakery", "price": 1, "lat": 40.5992758527919, "long": -73.952040456163, "radii": 1600, "photos": 0}, {"code": "BK17", "name": "Originals Pizza", "category": "Pizza Place", "price": 1, "lat": 40.60053574232715, "long": -73.94252851343947, "radii": 1600, "photos": 0}, {"code": "BK17", "name": "Coney Island Bagels", "category": "Bagel Shop", "price": 1, "lat": 40.587575977259945, "long": -73.9603254106202, "radii": 1600, "photos": 0}, {"code": "BK17", "name": "Papa Leone Pizza", "category": "Italian Restaurant", "price": 1, "lat": 40.577052144980925, "long": -73.95269650783393, "radii": 1600, "photos": 0}, {"code": "BK17", "name": "SUBWAY", "category": "Sandwich Place", "price": 1, "lat": 40.58731693054549, "long": -73.95384341569533, "radii": 1600, "photos": 0}, {"code": "BK17", "name": "Dunkin'", "category": "Donut Shop", "price": 1, "lat": 40.59361539203872, "long": -73.9402210092286, "radii": 1600, "photos": 0}, {"code": "BK17", "name": "Trio Pizzeria", "category": "Pizza Place", "price": 1, "lat": 40.59929883000242, "long": -73.95234699764336, "radii": 1600, "photos": 0}, {"code": "BK17", "name": "Papa John's Pizza", "category": "Pizza Place", "price": 1, "lat": 40.59783114986055, "long": -73.94169169068044, "radii": 1600, "photos": 0}, {"code": "BK17", "name": "SUBWAY", "category": "Sandwich Place", "price": 1, "lat": 40.58620358937367, "long": -73.931103820204, "radii": 1600, "photos": 0}, {"code": "BK17", "name": "Chillax Manhattan Beach Cafe", "category": "Caf\u00e9", "price": 1, "lat": 40.578697, "long": -73.938004, "radii": 1600, "photos": 0}, {"code": "BK17", "name": "Subways", "category": "Sandwich Place", "price": 1, "lat": 40.59924005742175, "long": -73.95285228059605, "radii": 1600, "photos": 0}, {"code": "BK17", "name": "Domino's Pizza", "category": "Pizza Place", "price": 1, "lat": 40.59848444146692, "long": -73.94174203276634, "radii": 1600, "photos": 0}, {"code": "BK17", "name": "Dunkin'", "category": "Donut Shop", "price": 1, "lat": 40.5952313564516, "long": -73.95518041357211, "radii": 1600, "photos": 0}, {"code": "BK17", "name": "Victoria's Pizzeria", "category": "Pizza Place", "price": 1, "lat": 40.59291248688142, "long": -73.92547297694043, "radii": 1600, "photos": 0}, {"code": "BK17", "name": "TGI Fridays", "category": "American Restaurant", "price": 1, "lat": 40.586918, "long": -73.928955, "radii": 1600, "photos": 0}, {"code": "BK17", "name": "Popeyes Louisiana Kitchen", "category": "Fried Chicken Joint", "price": 1, "lat": 40.5998175021509, "long": -73.94186834023252, "radii": 1600, "photos": 0}, {"code": "BK17", "name": "Golden Sands Cafe Inc.", "category": "Caf\u00e9", "price": 1, "lat": 40.59930163198246, "long": -73.95173737261551, "radii": 1600, "photos": 0}, {"code": "BK17", "name": "Dunkin'", "category": "Donut Shop", "price": 1, "lat": 40.58627222039062, "long": -73.93099277422237, "radii": 1600, "photos": 0}, {"code": "BK17", "name": "McDonald's", "category": "Fast Food Restaurant", "price": 1, "lat": 40.59318625933631, "long": -73.9459503134295, "radii": 1600, "photos": 0}, {"code": "BK17", "name": "New Star Chinese Restaurant", "category": "Chinese Restaurant", "price": 1, "lat": 40.592964514551845, "long": -73.946737508686, "radii": 1600, "photos": 0}, {"code": "BK17", "name": "Esther deli", "category": "Deli / Bodega", "price": 1, "lat": 40.59451180141173, "long": -73.9408988283492, "radii": 1600, "photos": 0}, {"code": "BK17", "name": "Deli By The Bay", "category": "Deli / Bodega", "price": 1, "lat": 40.58500184649258, "long": -73.93353639420761, "radii": 1600, "photos": 0}, {"code": "BK17", "name": "Amity Cafe", "category": "Caf\u00e9", "price": 1, "lat": 40.58695620131848, "long": -73.93202970914079, "radii": 1600, "photos": 0}, {"code": "BK17", "name": "Venezia Pizzeria & Restaurant", "category": "Pizza Place", "price": 1, "lat": 40.58655669345363, "long": -73.93088358264568, "radii": 1600, "photos": 0}, {"code": "BK17", "name": "Bay Side Mini Mart", "category": "Deli / Bodega", "price": 1, "lat": 40.58428599006318, "long": -73.93169100981389, "radii": 1600, "photos": 0}, {"code": "BK17", "name": "Middle Eastern Halal Food Cart", "category": "Food Truck", "price": 1, "lat": 40.59505280038363, "long": -73.94966995904004, "radii": 1600, "photos": 0}, {"code": "BK17", "name": "GRA Convenient Store", "category": "Deli / Bodega", "price": 1, "lat": 40.600476283333336, "long": -73.94047458333333, "radii": 1600, "photos": 0}, {"code": "BK17", "name": "Tee's Pizza Place", "category": "Pizza Place", "price": 1, "lat": 40.58852512937051, "long": -73.924595410042, "radii": 1600, "photos": 0}, {"code": "BK17", "name": "Pizzeria Del Corso", "category": "Pizza Place", "price": 1, "lat": 40.601091766039296, "long": -73.93888393787215, "radii": 1600, "photos": 0}, {"code": "BK17", "name": "Lucky Star Chinese Rest.", "category": "Chinese Restaurant", "price": 1, "lat": 40.599937733333334, "long": -73.93389421666667, "radii": 1600, "photos": 0}, {"code": "BK17", "name": "Halal Man", "category": "Food Truck", "price": 1, "lat": 40.576325, "long": -73.934606, "radii": 1600, "photos": 0}, {"code": "BK17", "name": "Mings Place", "category": "Asian Restaurant", "price": 1, "lat": 40.59952177866911, "long": -73.95073670866181, "radii": 1600, "photos": 0}, {"code": "BK17", "name": "\u0420\u0430\u043d\u043d\u0438\u0439 \u041f\u043e\u043b\u0434\u043d\u0438\u043a", "category": "Breakfast Spot", "price": 1, "lat": 40.58892311996826, "long": -73.95950830617542, "radii": 1600, "photos": 0}, {"code": "BK17", "name": "U Deli & Grocery", "category": "Deli / Bodega", "price": 1, "lat": 40.6005830942344, "long": -73.94954632524023, "radii": 1600, "photos": 0}, {"code": "BK17", "name": "24hr Convenient Store", "category": "Deli / Bodega", "price": 1, "lat": 40.60130226077989, "long": -73.93546776085351, "radii": 1600, "photos": 0}, {"code": "BK17", "name": "Liman Restaurant", "category": "Turkish Restaurant", "price": 2, "lat": 40.58336786775719, "long": -73.94105317526062, "radii": 1600, "photos": 0}, {"code": "BK17", "name": "Mitoushi Sushi", "category": "Sushi Restaurant", "price": 2, "lat": 40.58569319686678, "long": -73.95178220076188, "radii": 1600, "photos": 0}, {"code": "BK17", "name": "Yiasou", "category": "Greek Restaurant", "price": 2, "lat": 40.58387183725412, "long": -73.94825188818548, "radii": 1600, "photos": 0}, {"code": "BK17", "name": "Hayashi", "category": "Sushi Restaurant", "price": 2, "lat": 40.59051412017086, "long": -73.94959334915163, "radii": 1600, "photos": 0}, {"code": "BK17", "name": "Luda's Dumplings", "category": "Restaurant", "price": 2, "lat": 40.5850024, "long": -73.9509499, "radii": 1600, "photos": 0}, {"code": "BK17", "name": "Masakari", "category": "Sushi Restaurant", "price": 2, "lat": 40.58696065265217, "long": -73.95258878819348, "radii": 1600, "photos": 0}, {"code": "BK17", "name": "Patrizia\u2019s Of Sheepshead Bay", "category": "Italian Restaurant", "price": 2, "lat": 40.583858, "long": -73.949688, "radii": 1600, "photos": 0}, {"code": "BK17", "name": "Istanbul Restaurant Fish & Kebab", "category": "Turkish Restaurant", "price": 2, "lat": 40.583380442983994, "long": -73.95102382811214, "radii": 1600, "photos": 0}, {"code": "BK17", "name": "Momo Hibachi Steak House & Bar", "category": "Japanese Restaurant", "price": 2, "lat": 40.58354976555866, "long": -73.94910105279351, "radii": 1600, "photos": 0}, {"code": "BK17", "name": "Masal Cafe & Lounge", "category": "Caf\u00e9", "price": 2, "lat": 40.58372205376208, "long": -73.94901529688592, "radii": 1600, "photos": 0}, {"code": "BK17", "name": "Cats on the Bay", "category": "Restaurant", "price": 2, "lat": 40.583823962132676, "long": -73.94684939065917, "radii": 1600, "photos": 0}, {"code": "BK17", "name": "Rocca Cafe & Lounge", "category": "Turkish Restaurant", "price": 2, "lat": 40.58337120337256, "long": -73.94084083874, "radii": 1600, "photos": 0}, {"code": "BK17", "name": "Brennan & Carr", "category": "Sandwich Place", "price": 2, "lat": 40.60029524315701, "long": -73.94219245563342, "radii": 1600, "photos": 0}, {"code": "BK17", "name": "Bassett Caterers", "category": "Restaurant", "price": 2, "lat": 40.592149284403725, "long": -73.95590269926214, "radii": 1600, "photos": 0}, {"code": "BK17", "name": "Hot Potato House", "category": "Eastern European Restaurant", "price": 2, "lat": 40.57717240827993, "long": -73.95253390073776, "radii": 1600, "photos": 0}, {"code": "BK17", "name": "Fuel", "category": "Sandwich Place", "price": 2, "lat": 40.585517047479996, "long": -73.95161573211885, "radii": 1600, "photos": 0}, {"code": "BK17", "name": "Kouros Bay Diner", "category": "Diner", "price": 2, "lat": 40.58976071228596, "long": -73.93971282705247, "radii": 1600, "photos": 0}, {"code": "BK17", "name": "Ginza Sushi Inc", "category": "Sushi Restaurant", "price": 2, "lat": 40.592877888978116, "long": -73.95005510859315, "radii": 1600, "photos": 0}, {"code": "BK17", "name": "Perry's Restaurant", "category": "Diner", "price": 2, "lat": 40.59899542432686, "long": -73.9418670176015, "radii": 1600, "photos": 0}, {"code": "BK17", "name": "Next Door", "category": "Italian Restaurant", "price": 2, "lat": 40.58382657299344, "long": -73.94810805126069, "radii": 1600, "photos": 0}, {"code": "BK17", "name": "Jordan's Lobster Dock", "category": "Seafood Restaurant", "price": 2, "lat": 40.5866550290315, "long": -73.9291793661188, "radii": 1600, "photos": 0}, {"code": "BK17", "name": "Tenda Asian Fusion", "category": "Japanese Restaurant", "price": 2, "lat": 40.58519049356336, "long": -73.95149450440603, "radii": 1600, "photos": 0}, {"code": "BK17", "name": "Sushi Bistro", "category": "Sushi Restaurant", "price": 2, "lat": 40.599081521877366, "long": -73.95257152868248, "radii": 1600, "photos": 0}, {"code": "BK17", "name": "Jay & Lloyd's Old Time Brooklyn Delicatessen", "category": "Deli / Bodega", "price": 2, "lat": 40.6001031640922, "long": -73.94415585465612, "radii": 1600, "photos": 0}, {"code": "BK17", "name": "Chikurin Sushi", "category": "Sushi Restaurant", "price": 2, "lat": 40.58823791490039, "long": -73.95226776733446, "radii": 1600, "photos": 0}, {"code": "BK17", "name": "Kawaii Sushi", "category": "Sushi Restaurant", "price": 2, "lat": 40.600095722957576, "long": -73.94440105719987, "radii": 1600, "photos": 0}, {"code": "BK17", "name": "Osaka Sushi Express", "category": "Sushi Restaurant", "price": 2, "lat": 40.58767239611897, "long": -73.95540794855597, "radii": 1600, "photos": 0}, {"code": "BK17", "name": "Maria's Ristorante Italiano", "category": "Italian Restaurant", "price": 2, "lat": 40.584204552064534, "long": -73.93682511145633, "radii": 1600, "photos": 0}, {"code": "BK17", "name": "Signature Restaurant", "category": "Restaurant", "price": 2, "lat": 40.58381720964565, "long": -73.94777570401114, "radii": 1600, "photos": 0}, {"code": "BK17", "name": "Pirosmani", "category": "Russian Restaurant", "price": 2, "lat": 40.59962864526162, "long": -73.94866689908794, "radii": 1600, "photos": 0}, {"code": "BK17", "name": "Clemente's Maryland Crab House", "category": "Seafood Restaurant", "price": 2, "lat": 40.585034, "long": -73.926276, "radii": 1600, "photos": 0}, {"code": "BK17", "name": "N&D Pizzeria", "category": "Pizza Place", "price": 2, "lat": 40.60035070832179, "long": -73.94301791527467, "radii": 1600, "photos": 0}, {"code": "BK17", "name": "Anyway Cafe", "category": "New American Restaurant", "price": 2, "lat": 40.59500036025735, "long": -73.9546752528955, "radii": 1600, "photos": 0}, {"code": "BK17", "name": "Applebee's Grill + Bar", "category": "American Restaurant", "price": 2, "lat": 40.58388785, "long": -73.94323487, "radii": 1600, "photos": 0}, {"code": "BK17", "name": "Pizza D'Amore", "category": "Italian Restaurant", "price": 2, "lat": 40.60085655690857, "long": -73.93902579671524, "radii": 1600, "photos": 0}, {"code": "BK17", "name": "Cafe Rokhat", "category": "Asian Restaurant", "price": 2, "lat": 40.58402821254905, "long": -73.95089457037767, "radii": 1600, "photos": 0}, {"code": "BK17", "name": "Knapp Street Bagel Cafe", "category": "Bagel Shop", "price": 2, "lat": 40.60011746977999, "long": -73.93386992685228, "radii": 1600, "photos": 0}, {"code": "BK17", "name": "Vanka Vstanka", "category": "Russian Restaurant", "price": 2, "lat": 40.591079729000974, "long": -73.94023605917234, "radii": 1600, "photos": 0}, {"code": "BK17", "name": "Spiros Restaurant", "category": "Diner", "price": 2, "lat": 40.59958015109751, "long": -73.95022537593206, "radii": 1600, "photos": 0}, {"code": "BK17", "name": "Sushi MiKasa", "category": "Sushi Restaurant", "price": 2, "lat": 40.59412047248599, "long": -73.95878145550043, "radii": 1600, "photos": 0}, {"code": "BK17", "name": "Osaka Japanese restaurant", "category": "Japanese Restaurant", "price": 2, "lat": 40.60033748322529, "long": -73.94351613558916, "radii": 1600, "photos": 0}, {"code": "BK17", "name": "Anatolian Turkish Restaurant", "category": "Mediterranean Restaurant", "price": 2, "lat": 40.59317468157451, "long": -73.95316567185884, "radii": 1600, "photos": 0}, {"code": "BK17", "name": "Osaka", "category": "Japanese Restaurant", "price": 2, "lat": 40.60029721468171, "long": -73.9427070455436, "radii": 1600, "photos": 0}, {"code": "BK17", "name": "Surf and turf", "category": "Restaurant", "price": 2, "lat": 40.60032318282509, "long": -73.94053144247435, "radii": 1600, "photos": 0}, {"code": "BK17", "name": "Kavkazkiy Devorik Restaurant", "category": "Restaurant", "price": 2, "lat": 40.600605, "long": -73.94411, "radii": 1600, "photos": 0}, {"code": "BK17", "name": "Sherdor", "category": "Eastern European Restaurant", "price": 2, "lat": 40.599563, "long": -73.952068, "radii": 1600, "photos": 0}, {"code": "BK17", "name": "Gallery Cafe", "category": "Restaurant", "price": 2, "lat": 40.588300050649934, "long": -73.96010524926392, "radii": 1600, "photos": 0}, {"code": "BK17", "name": "Caravan Grill", "category": "Eastern European Restaurant", "price": 2, "lat": 40.58788596903709, "long": -73.96020282632394, "radii": 1600, "photos": 0}, {"code": "BK17", "name": "Circles Restaurant", "category": "American Restaurant", "price": 2, "lat": 40.58824, "long": -73.9604, "radii": 1600, "photos": 0}, {"code": "BK17", "name": "Opera Cafe Lounge", "category": "Turkish Restaurant", "price": 3, "lat": 40.58384173638549, "long": -73.94448064550176, "radii": 1600, "photos": 0}, {"code": "BK17", "name": "Bellarussian Xata", "category": "Russian Restaurant", "price": 3, "lat": 40.586439, "long": -73.952113, "radii": 1600, "photos": 0}, {"code": "BK17", "name": "Randazzo's Clam Bar", "category": "Seafood Restaurant", "price": 3, "lat": 40.58383227286486, "long": -73.94758290677336, "radii": 1600, "photos": 0}, {"code": "BK17", "name": "Anthony's Place", "category": "Italian Restaurant", "price": 3, "lat": 40.592820541375296, "long": -73.94862722323286, "radii": 1600, "photos": 0}, {"code": "BK17", "name": "Il Fornetto", "category": "Italian Restaurant", "price": 3, "lat": 40.58337792928743, "long": -73.93948662464095, "radii": 1600, "photos": 0}, {"code": "BK17", "name": "Anatolian Gyro", "category": "Mediterranean Restaurant", "price": 3, "lat": 40.587477, "long": -73.9530489, "radii": 1600, "photos": 0}, {"code": "BK17", "name": "Chinar", "category": "Restaurant", "price": 3, "lat": 40.58882530573664, "long": -73.9602757369157, "radii": 1600, "photos": 0}, {"code": "BK17", "name": "Cipura Restaurant", "category": "Seafood Restaurant", "price": 3, "lat": 40.583832, "long": -73.949524, "radii": 1600, "photos": 0}, {"code": "BK17", "name": "WOW Cafe and Grill", "category": "Seafood Restaurant", "price": 3, "lat": 40.5822032, "long": -73.9564934, "radii": 1600, "photos": 0}, {"code": "BK17", "name": "Tsob Tsobe", "category": "Middle Eastern Restaurant", "price": 3, "lat": 40.5878395, "long": -73.9600644, "radii": 1600, "photos": 0}, {"code": "BK17", "name": "Fil's Seafood Grill", "category": "Seafood Restaurant", "price": 3, "lat": 40.58426359393941, "long": -73.93573522567749, "radii": 1600, "photos": 0}, {"code": "BK17", "name": "Sur La Baie", "category": "Restaurant", "price": 3, "lat": 40.584138, "long": -73.935818, "radii": 1600, "photos": 0}, {"code": "BK17", "name": "F R Goldfish", "category": "Seafood Restaurant", "price": 3, "lat": 40.593201, "long": -73.950104, "radii": 1600, "photos": 0}, {"code": "BK17", "name": "Maria's", "category": "Seafood Restaurant", "price": 3, "lat": 40.58574713324159, "long": -73.93127768102059, "radii": 1600, "photos": 0}, {"code": "BK19", "name": "Tone Cafe", "category": "Bakery", "price": 1, "lat": 40.58126764708763, "long": -73.96320055494142, "radii": 643, "photos": 0}, {"code": "BK19", "name": "Tacos El Rey", "category": "Taco Place", "price": 1, "lat": 40.57874555670518, "long": -73.95977893543797, "radii": 643, "photos": 0}, {"code": "BK19", "name": "Wise Espresso Bar", "category": "Caf\u00e9", "price": 1, "lat": 40.57992748225466, "long": -73.95984671349534, "radii": 643, "photos": 0}, {"code": "BK19", "name": "Cafe Kashkar", "category": "Asian Restaurant", "price": 1, "lat": 40.57761586673997, "long": -73.95559128891465, "radii": 643, "photos": 0}, {"code": "BK19", "name": "Sammys Halal Food", "category": "Food Truck", "price": 1, "lat": 40.57881766737289, "long": -73.95702293673945, "radii": 643, "photos": 0}, {"code": "BK19", "name": "Dunkin'", "category": "Donut Shop", "price": 1, "lat": 40.57812333890426, "long": -73.96026047362807, "radii": 643, "photos": 0}, {"code": "BK19", "name": "Wendy's", "category": "Fast Food Restaurant", "price": 1, "lat": 40.57788310107806, "long": -73.96083749519804, "radii": 643, "photos": 0}, {"code": "BK19", "name": "Popeyes Louisiana Kitchen", "category": "Fast Food Restaurant", "price": 1, "lat": 40.57799915412583, "long": -73.96031417008719, "radii": 643, "photos": 0}, {"code": "BK19", "name": "La Brioche", "category": "Bakery", "price": 1, "lat": 40.57818335502451, "long": -73.95759224533593, "radii": 643, "photos": 0}, {"code": "BK19", "name": "Dunkin'", "category": "Donut Shop", "price": 1, "lat": 40.582570000000004, "long": -73.95967999999999, "radii": 643, "photos": 0}, {"code": "BK19", "name": "Caffeine", "category": "Caf\u00e9", "price": 1, "lat": 40.57795482683966, "long": -73.95866614352386, "radii": 643, "photos": 0}, {"code": "BK19", "name": "New Shama Restaurant", "category": "Indian Restaurant", "price": 1, "lat": 40.581559693649496, "long": -73.96191902654755, "radii": 643, "photos": 0}, {"code": "BK19", "name": "Royal Pizza", "category": "Pizza Place", "price": 1, "lat": 40.577955037048284, "long": -73.96031368367468, "radii": 643, "photos": 0}, {"code": "BK19", "name": "Deli & Appetizing", "category": "Deli / Bodega", "price": 1, "lat": 40.57770834733361, "long": -73.96159590636537, "radii": 643, "photos": 0}, {"code": "BK19", "name": "Luigi's Pizza", "category": "Pizza Place", "price": 1, "lat": 40.57820698281625, "long": -73.95814300961334, "radii": 643, "photos": 0}, {"code": "BK19", "name": "The Waffle Boy", "category": "Food Truck", "price": 1, "lat": 40.585080676446644, "long": -73.96323917017544, "radii": 643, "photos": 0}, {"code": "BK19", "name": "Rocco's Bakery & Deli", "category": "Bakery", "price": 1, "lat": 40.58490170670415, "long": -73.95860714820746, "radii": 643, "photos": 0}, {"code": "BK19", "name": "Atlantic Bagel Company", "category": "Bagel Shop", "price": 1, "lat": 40.58303387005339, "long": -73.95531243295073, "radii": 643, "photos": 0}, {"code": "BK19", "name": "N\u2019joy Family Cafe", "category": "Caf\u00e9", "price": 1, "lat": 40.586169, "long": -73.960668, "radii": 643, "photos": 0}, {"code": "BK19", "name": "W&F Deli Grocery", "category": "Deli / Bodega", "price": 1, "lat": 40.58104010916174, "long": -73.96867424019129, "radii": 643, "photos": 0}, {"code": "BK19", "name": "Lotus Cafe and Grill", "category": "Breakfast Spot", "price": 1, "lat": 40.583078, "long": -73.954272, "radii": 643, "photos": 0}, {"code": "BK19", "name": "Pak Nasheman", "category": "Indian Restaurant", "price": 2, "lat": 40.57934718933937, "long": -73.95980103811304, "radii": 643, "photos": 0}, {"code": "BK19", "name": "Skovorodka", "category": "Russian Restaurant", "price": 2, "lat": 40.57785097056201, "long": -73.96096839229678, "radii": 643, "photos": 0}, {"code": "BK19", "name": "Cafe Euroasia", "category": "Eastern European Restaurant", "price": 2, "lat": 40.57745178007406, "long": -73.9614209929464, "radii": 643, "photos": 0}, {"code": "BK19", "name": "Beyti Turkish Kebab", "category": "Mediterranean Restaurant", "price": 2, "lat": 40.57725621107341, "long": -73.96273041029376, "radii": 643, "photos": 0}, {"code": "BK19", "name": "Cafe At Your Mother-in-Law", "category": "Korean Restaurant", "price": 2, "lat": 40.57757524231774, "long": -73.96344895612154, "radii": 643, "photos": 0}, {"code": "BK19", "name": "Ocean View Cafe", "category": "Diner", "price": 2, "lat": 40.57698137121013, "long": -73.96421936506339, "radii": 643, "photos": 0}, {"code": "BK19", "name": "Sachiko Sushi", "category": "Sushi Restaurant", "price": 2, "lat": 40.57637953033672, "long": -73.9657966583925, "radii": 643, "photos": 0}, {"code": "BK19", "name": "\u0414\u043e\u043c\u0430\u0448\u043d\u044f\u044f \u043a\u0443\u0445\u043d\u044f", "category": "Eastern European Restaurant", "price": 2, "lat": 40.577325505088474, "long": -73.96214748992054, "radii": 643, "photos": 0}, {"code": "BK19", "name": "Cafe Paris", "category": "French Restaurant", "price": 2, "lat": 40.57955896450659, "long": -73.96068497107262, "radii": 643, "photos": 0}, {"code": "BK19", "name": "Gyro Express", "category": "Middle Eastern Restaurant", "price": 2, "lat": 40.57916681656414, "long": -73.95987510681152, "radii": 643, "photos": 0}, {"code": "BK19", "name": "Maru sushi", "category": "Sushi Restaurant", "price": 2, "lat": 40.58123797576362, "long": -73.96401403287857, "radii": 643, "photos": 0}, {"code": "BK19", "name": "Omar Khayyam", "category": "Eastern European Restaurant", "price": 2, "lat": 40.579034, "long": -73.959628, "radii": 643, "photos": 0}, {"code": "BK19", "name": "Homemade Cooking Cafe", "category": "Restaurant", "price": 2, "lat": 40.577165109669714, "long": -73.96207974016792, "radii": 643, "photos": 0}, {"code": "BK19", "name": "chikurin sushi", "category": "Sushi Restaurant", "price": 2, "lat": 40.57817226397369, "long": -73.95666182041168, "radii": 643, "photos": 0}, {"code": "BK19", "name": "Shinjuku", "category": "Sushi Restaurant", "price": 2, "lat": 40.577791535860115, "long": -73.95604140789462, "radii": 643, "photos": 0}, {"code": "BK19", "name": "WOW Cafe and Grill", "category": "Seafood Restaurant", "price": 3, "lat": 40.5822032, "long": -73.9564934, "radii": 643, "photos": 0}, {"code": "BK19", "name": "The National", "category": "Restaurant", "price": 3, "lat": 40.57699238667643, "long": -73.96487048242537, "radii": 643, "photos": 0}, {"code": "BK19", "name": "New Cat Cafe", "category": "French Restaurant", "price": 3, "lat": 40.58265584224467, "long": -73.95817665724722, "radii": 643, "photos": 0}, {"code": "BK19", "name": "Bistro Cafe", "category": "Food", "price": 4, "lat": 40.578317, "long": -73.958422, "radii": 643, "photos": 0}, {"code": "BK21", "name": "Plaza Mexico Dona Zita", "category": "Mexican Restaurant", "price": 1, "lat": 40.57480472085735, "long": -73.98058386922736, "radii": 2002, "photos": 0}, {"code": "BK21", "name": "Cropsey Bagels And Deli", "category": "Bagel Shop", "price": 1, "lat": 40.58608077117313, "long": -73.98795835613261, "radii": 2002, "photos": 0}, {"code": "BK21", "name": "Bread Plus Bakery", "category": "Bakery", "price": 1, "lat": 40.58579776021772, "long": -73.98354093717562, "radii": 2002, "photos": 0}, {"code": "BK21", "name": "Chipotle Mexican Grill", "category": "Mexican Restaurant", "price": 1, "lat": 40.583302456298604, "long": -73.9867754624425, "radii": 2002, "photos": 0}, {"code": "BK21", "name": "IHOP", "category": "Breakfast Spot", "price": 1, "lat": 40.575722, "long": -73.97898, "radii": 2002, "photos": 0}, {"code": "BK21", "name": "Cropsey Restaurant & Pizzeria", "category": "Pizza Place", "price": 1, "lat": 40.58693136604643, "long": -73.98999372466072, "radii": 2002, "photos": 0}, {"code": "BK21", "name": "Pete's Clam Stop", "category": "Hot Dog Joint", "price": 1, "lat": 40.575342093269256, "long": -73.98209786902665, "radii": 2002, "photos": 0}, {"code": "BK21", "name": "Golden Krust Caribbean Restaurant", "category": "Caribbean Restaurant", "price": 1, "lat": 40.57673386749078, "long": -73.98467588824637, "radii": 2002, "photos": 0}, {"code": "BK21", "name": "Coney Shack", "category": "Food Truck", "price": 1, "lat": 40.57403474507673, "long": -73.97107948907716, "radii": 2002, "photos": 0}, {"code": "BK21", "name": "SUBWAY", "category": "Sandwich Place", "price": 1, "lat": 40.58760610793785, "long": -73.98363096716699, "radii": 2002, "photos": 0}, {"code": "BK21", "name": "Pizza On The Run", "category": "Pizza Place", "price": 1, "lat": 40.57664211269336, "long": -73.98155117824963, "radii": 2002, "photos": 0}, {"code": "BK21", "name": "Popeyes Louisiana Kitchen", "category": "Fried Chicken Joint", "price": 1, "lat": 40.57561391711478, "long": -73.99732679128645, "radii": 2002, "photos": 0}, {"code": "BK21", "name": "SUBWAY", "category": "Sandwich Place", "price": 1, "lat": 40.57645956920329, "long": -73.98136117301424, "radii": 2002, "photos": 0}, {"code": "BK21", "name": "John's Deli", "category": "Deli / Bodega", "price": 1, "lat": 40.58806342112747, "long": -73.98375029734292, "radii": 2002, "photos": 0}, {"code": "BK21", "name": "Surf City Pizzeria", "category": "Pizza Place", "price": 1, "lat": 40.575589660666814, "long": -73.97781149826675, "radii": 2002, "photos": 0}, {"code": "BK21", "name": "Papa John's Pizza", "category": "Pizza Place", "price": 1, "lat": 40.57897298061901, "long": -73.98234240657666, "radii": 2002, "photos": 0}, {"code": "BK21", "name": "Popeyes Louisiana Kitchen", "category": "Fast Food Restaurant", "price": 1, "lat": 40.57559379510086, "long": -73.98039969645409, "radii": 2002, "photos": 0}, {"code": "BK21", "name": "Checkers", "category": "Fast Food Restaurant", "price": 1, "lat": 40.5757562, "long": -73.9808808, "radii": 2002, "photos": 0}, {"code": "BK21", "name": "Carl's Jr.", "category": "Fast Food Restaurant", "price": 1, "lat": 40.5757890821873, "long": -73.97979848891401, "radii": 2002, "photos": 0}, {"code": "BK21", "name": "Domino's Pizza", "category": "Pizza Place", "price": 1, "lat": 40.57890198538393, "long": -73.98014187812805, "radii": 2002, "photos": 0}, {"code": "BK21", "name": "Dunkin'", "category": "Donut Shop", "price": 1, "lat": 40.57565063063267, "long": -73.99720911333515, "radii": 2002, "photos": 0}, {"code": "BK21", "name": "Feltman's of Coney Island", "category": "Hot Dog Joint", "price": 1, "lat": 40.5752972989156, "long": -73.97820246153387, "radii": 2002, "photos": 0}, {"code": "BK21", "name": "Saba Deli And Grocery", "category": "Deli / Bodega", "price": 1, "lat": 40.57416220227463, "long": -73.99104787948949, "radii": 2002, "photos": 0}, {"code": "BK21", "name": "Not Rays", "category": "Pizza Place", "price": 1, "lat": 40.575482083823, "long": -73.99416811828121, "radii": 2002, "photos": 0}, {"code": "BK21", "name": "Crown Fried Chicken", "category": "Burger Joint", "price": 1, "lat": 40.57565946765904, "long": -73.99437471540534, "radii": 2002, "photos": 0}, {"code": "BK21", "name": "Uniss deli", "category": "Deli / Bodega", "price": 1, "lat": 40.576251257250995, "long": -73.98766082931714, "radii": 2002, "photos": 0}, {"code": "BK21", "name": "Subway at Stillwell Station", "category": "Sandwich Place", "price": 1, "lat": 40.57704472935803, "long": -73.98161917636325, "radii": 2002, "photos": 0}, {"code": "BK21", "name": "McDonald's", "category": "Fast Food Restaurant", "price": 1, "lat": 40.577185, "long": -73.9817862, "radii": 2002, "photos": 0}, {"code": "BK21", "name": "Surf Neighborhood Gourmet Food", "category": "Deli / Bodega", "price": 1, "lat": 40.57421717828975, "long": -73.99596435805205, "radii": 2002, "photos": 0}, {"code": "BK21", "name": "Oriental Palace", "category": "Chinese Restaurant", "price": 1, "lat": 40.57535638631242, "long": -73.99688198328988, "radii": 2002, "photos": 0}, {"code": "BK21", "name": "Alsaydi Deli", "category": "Deli / Bodega", "price": 1, "lat": 40.572701, "long": -73.995598, "radii": 2002, "photos": 0}, {"code": "BK21", "name": "On The Run Pizza", "category": "Pizza Place", "price": 1, "lat": 40.57666991736231, "long": -73.98455934038772, "radii": 2002, "photos": 0}, {"code": "BK21", "name": "Alex Deli & Grocery", "category": "Taco Place", "price": 1, "lat": 40.577130245763456, "long": -73.98405032576706, "radii": 2002, "photos": 0}, {"code": "BK21", "name": "Danny Boy's Pizza", "category": "Pizza Place", "price": 1, "lat": 40.57519652475367, "long": -73.98394702167539, "radii": 2002, "photos": 0}, {"code": "BK21", "name": "Pals Hero Shop", "category": "Sandwich Place", "price": 1, "lat": 40.58047, "long": -73.98549, "radii": 2002, "photos": 0}, {"code": "BK21", "name": "S&W Deli", "category": "Deli / Bodega", "price": 1, "lat": 40.57708449, "long": -73.9821320772171, "radii": 2002, "photos": 0}, {"code": "BK21", "name": "Burger King", "category": "Fast Food Restaurant", "price": 1, "lat": 40.58315042452364, "long": -73.98658535793827, "radii": 2002, "photos": 0}, {"code": "BK21", "name": "A&T Grocery", "category": "Deli / Bodega", "price": 1, "lat": 40.5769328468635, "long": -73.98153657710093, "radii": 2002, "photos": 0}, {"code": "BK21", "name": "Coney Shack", "category": "Taco Place", "price": 1, "lat": 40.574615, "long": -73.981771, "radii": 2002, "photos": 0}, {"code": "BK21", "name": "Island Grocery", "category": "Deli / Bodega", "price": 1, "lat": 40.57540033693464, "long": -73.98056665158647, "radii": 2002, "photos": 0}, {"code": "BK21", "name": "White Castle Express", "category": "Burger Joint", "price": 1, "lat": 40.57412940726734, "long": -73.9806628408452, "radii": 2002, "photos": 0}, {"code": "BK21", "name": "Dunkin'", "category": "Donut Shop", "price": 1, "lat": 40.58048217671372, "long": -73.98010177430896, "radii": 2002, "photos": 0}, {"code": "BK21", "name": "Deno's Snack Bar", "category": "Pizza Place", "price": 1, "lat": 40.573393, "long": -73.979233, "radii": 2002, "photos": 0}, {"code": "BK21", "name": "West 12th Grocery", "category": "Deli / Bodega", "price": 1, "lat": 40.57934345870011, "long": -73.97908018819395, "radii": 2002, "photos": 0}, {"code": "BK21", "name": "Leo's pizza", "category": "Pizza Place", "price": 1, "lat": 40.58224363107585, "long": -73.98102004932969, "radii": 2002, "photos": 0}, {"code": "BK21", "name": "Famiglia", "category": "Pizza Place", "price": 1, "lat": 40.57332968423499, "long": -73.97916053786035, "radii": 2002, "photos": 0}, {"code": "BK21", "name": "McDonald's", "category": "Fast Food Restaurant", "price": 1, "lat": 40.57957445081341, "long": -73.97507719695568, "radii": 2002, "photos": 0}, {"code": "BK21", "name": "Grill House", "category": "American Restaurant", "price": 1, "lat": 40.57328324298059, "long": -73.97875785827637, "radii": 2002, "photos": 0}, {"code": "BK21", "name": "Luna Park Cafe", "category": "Caf\u00e9", "price": 1, "lat": 40.57559761897613, "long": -73.97794246673584, "radii": 2002, "photos": 0}, {"code": "BK21", "name": "Bagel Shop", "category": "Bagel Shop", "price": 1, "lat": 40.58701493435839, "long": -73.99008360568854, "radii": 2002, "photos": 0}, {"code": "BK21", "name": "MV Food Corp", "category": "Deli / Bodega", "price": 1, "lat": 40.5778007562677, "long": -73.97632532218057, "radii": 2002, "photos": 0}, {"code": "BK21", "name": "Mamma Mia Pizzeria & Italian Restaurant", "category": "Pizza Place", "price": 1, "lat": 40.58795765430301, "long": -73.98968605366133, "radii": 2002, "photos": 0}, {"code": "BK21", "name": "Tommy's", "category": "Breakfast Spot", "price": 1, "lat": 40.588659507585646, "long": -73.98825131174901, "radii": 2002, "photos": 0}, {"code": "BK21", "name": "The New York Bite", "category": "Food Truck", "price": 1, "lat": 40.57428746068607, "long": -73.97415583742655, "radii": 2002, "photos": 0}, {"code": "BK21", "name": "Seaside Cafe", "category": "Caf\u00e9", "price": 1, "lat": 40.574165, "long": -73.97370541, "radii": 2002, "photos": 0}, {"code": "BK21", "name": "Rocco's Bagels", "category": "Bagel Shop", "price": 1, "lat": 40.57464889793026, "long": -73.97308830420383, "radii": 2002, "photos": 0}, {"code": "BK21", "name": "Rocco's Famous Pizzeria", "category": "Pizza Place", "price": 1, "lat": 40.57970457610935, "long": -73.9733003445639, "radii": 2002, "photos": 0}, {"code": "BK21", "name": "Aliza's Pizza", "category": "Pizza Place", "price": 1, "lat": 40.58297146666666, "long": -73.97467716666667, "radii": 2002, "photos": 0}, {"code": "BK21", "name": "Eastern Chinese Restaurant", "category": "Chinese Restaurant", "price": 1, "lat": 40.57967659419273, "long": -73.97264636667441, "radii": 2002, "photos": 0}, {"code": "BK21", "name": "Bad Boys Pizza", "category": "Pizza Place", "price": 1, "lat": 40.59201927070425, "long": -73.99359997504202, "radii": 2002, "photos": 0}, {"code": "BK21", "name": "W&F Deli Grocery", "category": "Deli / Bodega", "price": 1, "lat": 40.58104010916174, "long": -73.96867424019129, "radii": 2002, "photos": 0}, {"code": "BK21", "name": "Totonno's Pizzeria Napolitano", "category": "Pizza Place", "price": 2, "lat": 40.579036921346734, "long": -73.98397048627801, "radii": 2002, "photos": 0}, {"code": "BK21", "name": "Nathan's Famous", "category": "Hot Dog Joint", "price": 2, "lat": 40.57546706646261, "long": -73.98147694724416, "radii": 2002, "photos": 0}, {"code": "BK21", "name": "Grimaldi's Coal Brick-Oven Pizza", "category": "Pizza Place", "price": 2, "lat": 40.57579129496067, "long": -73.98002903515301, "radii": 2002, "photos": 0}, {"code": "BK21", "name": "La Casa Bella", "category": "Italian Restaurant", "price": 2, "lat": 40.59057045120435, "long": -73.99166555672711, "radii": 2002, "photos": 0}, {"code": "BK21", "name": "Footprints Cafe", "category": "Caribbean Restaurant", "price": 2, "lat": 40.57559180433582, "long": -73.98327133123327, "radii": 2002, "photos": 0}, {"code": "BK21", "name": "Nathan's Famous", "category": "Hot Dog Joint", "price": 2, "lat": 40.57323956800236, "long": -73.97988496867211, "radii": 2002, "photos": 0}, {"code": "BK21", "name": "Place to Beach", "category": "Mexican Restaurant", "price": 2, "lat": 40.573189343365975, "long": -73.98110974531059, "radii": 2002, "photos": 0}, {"code": "BK21", "name": "Parkview Diner", "category": "Diner", "price": 2, "lat": 40.5834206120946, "long": -73.98628844949978, "radii": 2002, "photos": 0}, {"code": "BK21", "name": "Hana Sushi", "category": "Sushi Restaurant", "price": 2, "lat": 40.57949324706843, "long": -73.97408615611155, "radii": 2002, "photos": 0}, {"code": "BK21", "name": "Vis \u00e0 Vis", "category": "Restaurant", "price": 2, "lat": 40.57547078390959, "long": -73.96910308656875, "radii": 2002, "photos": 0}, {"code": "BK21", "name": "Tom's Restaurant", "category": "American Restaurant", "price": 2, "lat": 40.573236548612364, "long": -73.98064945282235, "radii": 2002, "photos": 0}, {"code": "BK21", "name": "Applebee's Grill + Bar", "category": "American Restaurant", "price": 2, "lat": 40.5758648, "long": -73.9803074, "radii": 2002, "photos": 0}, {"code": "BK21", "name": "Yummy Taco", "category": "Asian Restaurant", "price": 2, "lat": 40.57542353323516, "long": -73.99470530191459, "radii": 2002, "photos": 0}, {"code": "BK21", "name": "Mi Candileja", "category": "Latin American Restaurant", "price": 2, "lat": 40.576756, "long": -73.982946, "radii": 2002, "photos": 0}, {"code": "BK21", "name": "Chowtime", "category": "Asian Restaurant", "price": 2, "lat": 40.577053, "long": -73.98185, "radii": 2002, "photos": 0}, {"code": "BK21", "name": "Gold Star Food", "category": "American Restaurant", "price": 2, "lat": 40.575368067019674, "long": -74.00133494072615, "radii": 2002, "photos": 0}, {"code": "BK21", "name": "Brooklyn Pit", "category": "BBQ Joint", "price": 2, "lat": 40.574877, "long": -73.981052, "radii": 2002, "photos": 0}, {"code": "BK21", "name": "The Red Doors Bar and Grill", "category": "Restaurant", "price": 2, "lat": 40.57564211754635, "long": -73.97990196709108, "radii": 2002, "photos": 0}, {"code": "BK21", "name": "Pio Pio Riko", "category": "South American Restaurant", "price": 2, "lat": 40.573368072509766, "long": -73.978897, "radii": 2002, "photos": 0}, {"code": "BK21", "name": "Oceanview Bites", "category": "Restaurant", "price": 2, "lat": 40.573923, "long": -73.973835, "radii": 2002, "photos": 0}, {"code": "BK21", "name": "Avalon Pizza", "category": "Italian Restaurant", "price": 2, "lat": 40.59269314327608, "long": -73.9883660914967, "radii": 2002, "photos": 0}, {"code": "BK21", "name": "Gargiulo's Restaurant", "category": "Italian Restaurant", "price": 3, "lat": 40.5766119224701, "long": -73.98217469192599, "radii": 2002, "photos": 0}, {"code": "BK21", "name": "Famous's Rotisserie & Grill", "category": "New American Restaurant", "price": 3, "lat": 40.57681816531952, "long": -73.98357534509887, "radii": 2002, "photos": 0}, {"code": "BK21", "name": "Clam Bar", "category": "Seafood Restaurant", "price": 3, "lat": 40.57542530363759, "long": -73.98200719008385, "radii": 2002, "photos": 0}, {"code": "BK21", "name": "Keyfood", "category": "Gastropub", "price": 3, "lat": 40.576388538358295, "long": -74.00141036230195, "radii": 2002, "photos": 0}, {"code": "BK21", "name": "Oceanside Grill", "category": "Seafood Restaurant", "price": 3, "lat": 40.573849, "long": -73.973579, "radii": 2002, "photos": 0}, {"code": "BK21", "name": "Orange Grill Brooklyn", "category": "BBQ Joint", "price": 4, "lat": 40.591168641816445, "long": -73.99205317040891, "radii": 2002, "photos": 0}, {"code": "BK21", "name": "The Cyclone Caf\u00e8", "category": "American Restaurant", "price": 4, "lat": 40.57529426915087, "long": -73.97825373253355, "radii": 2002, "photos": 0}, {"code": "BK23", "name": "SUBWAY", "category": "Sandwich Place", "price": 1, "lat": 40.57950181240813, "long": -73.96780220570476, "radii": 579, "photos": 0}, {"code": "BK23", "name": "Surf City Pizzeria", "category": "Pizza Place", "price": 1, "lat": 40.575589660666814, "long": -73.97781149826675, "radii": 579, "photos": 0}, {"code": "BK23", "name": "Berikoni - Brick Oven Bread", "category": "Bakery", "price": 1, "lat": 40.576448, "long": -73.967481, "radii": 579, "photos": 0}, {"code": "BK23", "name": "McDonald's", "category": "Fast Food Restaurant", "price": 1, "lat": 40.57957445081341, "long": -73.97507719695568, "radii": 579, "photos": 0}, {"code": "BK23", "name": "Domino's Pizza", "category": "Pizza Place", "price": 1, "lat": 40.57890198538393, "long": -73.98014187812805, "radii": 579, "photos": 0}, {"code": "BK23", "name": "Rocco's Famous Pizzeria", "category": "Pizza Place", "price": 1, "lat": 40.57970457610935, "long": -73.9733003445639, "radii": 579, "photos": 0}, {"code": "BK23", "name": "Eastern Chinese Restaurant", "category": "Chinese Restaurant", "price": 1, "lat": 40.57967659419273, "long": -73.97264636667441, "radii": 579, "photos": 0}, {"code": "BK23", "name": "MV Food Corp", "category": "Deli / Bodega", "price": 1, "lat": 40.5778007562677, "long": -73.97632532218057, "radii": 579, "photos": 0}, {"code": "BK23", "name": "Aliza's Pizza", "category": "Pizza Place", "price": 1, "lat": 40.58297146666666, "long": -73.97467716666667, "radii": 579, "photos": 0}, {"code": "BK23", "name": "W&F Deli Grocery", "category": "Deli / Bodega", "price": 1, "lat": 40.58104010916174, "long": -73.96867424019129, "radii": 579, "photos": 0}, {"code": "BK23", "name": "West 12th Grocery", "category": "Deli / Bodega", "price": 1, "lat": 40.57934345870011, "long": -73.97908018819395, "radii": 579, "photos": 0}, {"code": "BK23", "name": "Rocco's Bagels", "category": "Bagel Shop", "price": 1, "lat": 40.57464889793026, "long": -73.97308830420383, "radii": 579, "photos": 0}, {"code": "BK23", "name": "Russian Bread", "category": "Bakery", "price": 1, "lat": 40.576401, "long": -73.968597, "radii": 579, "photos": 0}, {"code": "BK23", "name": "Neptune Bagels", "category": "Bagel Shop", "price": 1, "lat": 40.58051523787232, "long": -73.96740043332873, "radii": 579, "photos": 0}, {"code": "BK23", "name": "Oriental kitchen", "category": "Chinese Restaurant", "price": 1, "lat": 40.57911531824506, "long": -73.96707901482475, "radii": 579, "photos": 0}, {"code": "BK23", "name": "The New York Bite", "category": "Food Truck", "price": 1, "lat": 40.57428746068607, "long": -73.97415583742655, "radii": 579, "photos": 0}, {"code": "BK23", "name": "Luna Park Cafe", "category": "Caf\u00e9", "price": 1, "lat": 40.57559761897613, "long": -73.97794246673584, "radii": 579, "photos": 0}, {"code": "BK23", "name": "Seaside Cafe", "category": "Caf\u00e9", "price": 1, "lat": 40.574165, "long": -73.97370541, "radii": 579, "photos": 0}, {"code": "BK23", "name": "Neptune Deli & Grill", "category": "Deli / Bodega", "price": 1, "lat": 40.58060324455975, "long": -73.96718232797379, "radii": 579, "photos": 0}, {"code": "BK23", "name": "Hana Sushi", "category": "Sushi Restaurant", "price": 2, "lat": 40.57949324706843, "long": -73.97408615611155, "radii": 579, "photos": 0}, {"code": "BK23", "name": "Vis \u00e0 Vis", "category": "Restaurant", "price": 2, "lat": 40.57547078390959, "long": -73.96910308656875, "radii": 579, "photos": 0}, {"code": "BK23", "name": "roccos pizza", "category": "Italian Restaurant", "price": 2, "lat": 40.58126603500581, "long": -73.97099339653192, "radii": 579, "photos": 0}, {"code": "BK23", "name": "Kaifuem", "category": "Middle Eastern Restaurant", "price": 2, "lat": 40.576191, "long": -73.968896, "radii": 579, "photos": 0}, {"code": "BK23", "name": "Gambrinus & Co.", "category": "Restaurant", "price": 2, "lat": 40.576051, "long": -73.96901, "radii": 579, "photos": 0}, {"code": "BK23", "name": "Oceanview Bites", "category": "Restaurant", "price": 2, "lat": 40.573923, "long": -73.973835, "radii": 579, "photos": 0}, {"code": "BK25", "name": "Cafe Venezia", "category": "Caf\u00e9", "price": 1, "lat": 40.59801951743878, "long": -73.96391832312746, "radii": 681, "photos": 0}, {"code": "BK25", "name": "Golden \"Z\" Restaurant", "category": "Chinese Restaurant", "price": 1, "lat": 40.59875836637706, "long": -73.9570096033757, "radii": 681, "photos": 0}, {"code": "BK25", "name": "Prince of Pizza", "category": "Pizza Place", "price": 1, "lat": 40.598438, "long": -73.960958, "radii": 681, "photos": 0}, {"code": "BK25", "name": "Popeyes Louisiana Kitchen", "category": "Fast Food Restaurant", "price": 1, "lat": 40.598271, "long": -73.960803, "radii": 681, "photos": 0}, {"code": "BK25", "name": "Subway", "category": "Sandwich Place", "price": 1, "lat": 40.59635114087639, "long": -73.96147132361331, "radii": 681, "photos": 0}, {"code": "BK25", "name": "Dunkin'", "category": "Donut Shop", "price": 1, "lat": 40.59789151894969, "long": -73.96088057594983, "radii": 681, "photos": 0}, {"code": "BK25", "name": "Moon & Flower House", "category": "Caf\u00e9", "price": 1, "lat": 40.598949, "long": -73.95787, "radii": 681, "photos": 0}, {"code": "BK25", "name": "Dunkin'", "category": "Donut Shop", "price": 1, "lat": 40.60170214544077, "long": -73.97163391113281, "radii": 681, "photos": 0}, {"code": "BK25", "name": "La Villita Mexican Restaurant", "category": "Mexican Restaurant", "price": 1, "lat": 40.598712479798415, "long": -73.95841390570061, "radii": 681, "photos": 0}, {"code": "BK25", "name": "Coffee Shop - Ave U", "category": "Caf\u00e9", "price": 1, "lat": 40.598034784709185, "long": -73.96357781425837, "radii": 681, "photos": 0}, {"code": "BK25", "name": "Coney Island Bagels And Bialys", "category": "Bagel Shop", "price": 1, "lat": 40.59946856063243, "long": -73.96121532888773, "radii": 681, "photos": 0}, {"code": "BK25", "name": "Posh Tomato", "category": "Pizza Place", "price": 1, "lat": 40.59742503794204, "long": -73.96680925245226, "radii": 681, "photos": 0}, {"code": "BK25", "name": "Choy Le", "category": "Chinese Restaurant", "price": 1, "lat": 40.59774964278656, "long": -73.96841257810587, "radii": 681, "photos": 0}, {"code": "BK25", "name": "Winley", "category": "Chinese Restaurant", "price": 1, "lat": 40.59866593, "long": -73.95939632, "radii": 681, "photos": 0}, {"code": "BK25", "name": "Kowloon Island", "category": "Chinese Restaurant", "price": 1, "lat": 40.59850177746985, "long": -73.95908881859758, "radii": 681, "photos": 0}, {"code": "BK25", "name": "Long Wong Bakery", "category": "Bakery", "price": 1, "lat": 40.59862652958638, "long": -73.95889414164755, "radii": 681, "photos": 0}, {"code": "BK25", "name": "Yee Kee H.K. Style", "category": "Chinese Restaurant", "price": 1, "lat": 40.59844865954703, "long": -73.95841773230325, "radii": 681, "photos": 0}, {"code": "BK25", "name": "Brooklyn Burger Boyz", "category": "Fast Food Restaurant", "price": 1, "lat": 40.60306117865663, "long": -73.96967904556239, "radii": 681, "photos": 0}, {"code": "BK25", "name": "Good Family Bakery", "category": "Bakery", "price": 1, "lat": 40.59873207666817, "long": -73.95749377359468, "radii": 681, "photos": 0}, {"code": "BK25", "name": "J-M Pizza II", "category": "Pizza Place", "price": 1, "lat": 40.598719915760796, "long": -73.95736733164277, "radii": 681, "photos": 0}, {"code": "BK25", "name": "L & U Cafe", "category": "Caf\u00e9", "price": 1, "lat": 40.598802616522896, "long": -73.95696553752914, "radii": 681, "photos": 0}, {"code": "BK25", "name": "Spring Bakery", "category": "Bakery", "price": 1, "lat": 40.59875069156022, "long": -73.95687976663976, "radii": 681, "photos": 0}, {"code": "BK25", "name": "Kingsway Bakery Plus", "category": "Bakery", "price": 1, "lat": 40.60433187089718, "long": -73.96950111963265, "radii": 681, "photos": 0}, {"code": "BK25", "name": "Slices Brooklyn", "category": "Pizza Place", "price": 1, "lat": 40.604867794966836, "long": -73.96870332070132, "radii": 681, "photos": 0}, {"code": "BK25", "name": "Fuji Hana", "category": "Japanese Restaurant", "price": 2, "lat": 40.59761662440588, "long": -73.96647413020186, "radii": 681, "photos": 0}, {"code": "BK25", "name": "Ph\u1edf Vietnam", "category": "Vietnamese Restaurant", "price": 2, "lat": 40.59866746377794, "long": -73.9584857506665, "radii": 681, "photos": 0}, {"code": "BK25", "name": "Wing Hing Seafood Restaurant", "category": "Chinese Restaurant", "price": 2, "lat": 40.59850944116727, "long": -73.95957022162729, "radii": 681, "photos": 0}, {"code": "BK25", "name": "Fuciaana Asian Food & Crystal Grill", "category": "Asian Restaurant", "price": 2, "lat": 40.59637402417453, "long": -73.96109823704106, "radii": 681, "photos": 0}, {"code": "BK25", "name": "Fontana Di Trevi Restaurant", "category": "Restaurant", "price": 2, "lat": 40.597974, "long": -73.963251, "radii": 681, "photos": 0}, {"code": "BK25", "name": "Taam Mevorach", "category": "Restaurant", "price": 2, "lat": 40.59816264191003, "long": -73.96246403736225, "radii": 681, "photos": 0}, {"code": "BK25", "name": "Gurman", "category": "Eastern European Restaurant", "price": 2, "lat": 40.59846774228635, "long": -73.96136226761297, "radii": 681, "photos": 0}, {"code": "BK25", "name": "David's Restaurant", "category": "Middle Eastern Restaurant", "price": 3, "lat": 40.604568812275424, "long": -73.96946595663472, "radii": 681, "photos": 0}, {"code": "BK25", "name": "Kasai", "category": "Steakhouse", "price": 4, "lat": 40.595214, "long": -73.9613, "radii": 681, "photos": 0}, {"code": "BK26", "name": "Bread Plus Bakery", "category": "Bakery", "price": 1, "lat": 40.58579776021772, "long": -73.98354093717562, "radii": 1326, "photos": 0}, {"code": "BK26", "name": "Knapp Pizza II", "category": "Pizza Place", "price": 1, "lat": 40.59026202538016, "long": -73.97320570458155, "radii": 1326, "photos": 0}, {"code": "BK26", "name": "Cropsey Bagels And Deli", "category": "Bagel Shop", "price": 1, "lat": 40.58608077117313, "long": -73.98795835613261, "radii": 1326, "photos": 0}, {"code": "BK26", "name": "The Original John's Deli", "category": "Sandwich Place", "price": 1, "lat": 40.59705498811431, "long": -73.985378443705, "radii": 1326, "photos": 0}, {"code": "BK26", "name": "SUBWAY", "category": "Sandwich Place", "price": 1, "lat": 40.58760610793785, "long": -73.98363096716699, "radii": 1326, "photos": 0}, {"code": "BK26", "name": "Cropsey Restaurant & Pizzeria", "category": "Pizza Place", "price": 1, "lat": 40.58693136604643, "long": -73.98999372466072, "radii": 1326, "photos": 0}, {"code": "BK26", "name": "Chipotle Mexican Grill", "category": "Mexican Restaurant", "price": 1, "lat": 40.583302456298604, "long": -73.9867754624425, "radii": 1326, "photos": 0}, {"code": "BK26", "name": "John's Deli", "category": "Deli / Bodega", "price": 1, "lat": 40.58806342112747, "long": -73.98375029734292, "radii": 1326, "photos": 0}, {"code": "BK26", "name": "Hunan Cottage", "category": "Chinese Restaurant", "price": 1, "lat": 40.590388010411694, "long": -73.97202534209248, "radii": 1326, "photos": 0}, {"code": "BK26", "name": "Bake City Bagels", "category": "Bagel Shop", "price": 1, "lat": 40.59063496498828, "long": -73.96972151250385, "radii": 1326, "photos": 0}, {"code": "BK26", "name": "Nuccios Bakery", "category": "Bakery", "price": 1, "lat": 40.59686348860613, "long": -73.97451511824467, "radii": 1326, "photos": 0}, {"code": "BK26", "name": "Cuccio's Bakery", "category": "Bakery", "price": 1, "lat": 40.59035417975102, "long": -73.97125914448723, "radii": 1326, "photos": 0}, {"code": "BK26", "name": "Dunkin'", "category": "Donut Shop", "price": 1, "lat": 40.596808421152225, "long": -73.97669432055227, "radii": 1326, "photos": 0}, {"code": "BK26", "name": "Bagels and Beyond", "category": "Bagel Shop", "price": 1, "lat": 40.59023789662891, "long": -73.97334620859483, "radii": 1326, "photos": 0}, {"code": "BK26", "name": "Ciccio's", "category": "Pizza Place", "price": 1, "lat": 40.59667201492687, "long": -73.97634043335019, "radii": 1326, "photos": 0}, {"code": "BK26", "name": "Dunkin'", "category": "Donut Shop", "price": 1, "lat": 40.5904302298898, "long": -73.97279695461367, "radii": 1326, "photos": 0}, {"code": "BK26", "name": "Golden Krust Caribbean Restaurant", "category": "Caribbean Restaurant", "price": 1, "lat": 40.57673386749078, "long": -73.98467588824637, "radii": 1326, "photos": 0}, {"code": "BK26", "name": "Papa John's Pizza", "category": "Pizza Place", "price": 1, "lat": 40.57897298061901, "long": -73.98234240657666, "radii": 1326, "photos": 0}, {"code": "BK26", "name": "Pizza On The Run", "category": "Pizza Place", "price": 1, "lat": 40.57664211269336, "long": -73.98155117824963, "radii": 1326, "photos": 0}, {"code": "BK26", "name": "Subway", "category": "Sandwich Place", "price": 1, "lat": 40.59720798905349, "long": -73.9854814307759, "radii": 1326, "photos": 0}, {"code": "BK26", "name": "Elegante Pastry Shop", "category": "Bakery", "price": 1, "lat": 40.59649470791817, "long": -73.97816561754584, "radii": 1326, "photos": 0}, {"code": "BK26", "name": "Domino's Pizza", "category": "Pizza Place", "price": 1, "lat": 40.57890198538393, "long": -73.98014187812805, "radii": 1326, "photos": 0}, {"code": "BK26", "name": "Papa John's Pizza", "category": "Pizza Place", "price": 1, "lat": 40.596748555126595, "long": -73.97705042270184, "radii": 1326, "photos": 0}, {"code": "BK26", "name": "Milk Farm Deli & Grocery", "category": "Deli / Bodega", "price": 1, "lat": 40.58665602436687, "long": -73.98358545691711, "radii": 1326, "photos": 0}, {"code": "BK26", "name": "First Cook", "category": "Chinese Restaurant", "price": 1, "lat": 40.591102375467116, "long": -73.98371171770367, "radii": 1326, "photos": 0}, {"code": "BK26", "name": "Taste Of China", "category": "Chinese Restaurant", "price": 1, "lat": 40.59299084000925, "long": -73.98147344600336, "radii": 1326, "photos": 0}, {"code": "BK26", "name": "Zheng China Kitchen", "category": "Chinese Restaurant", "price": 1, "lat": 40.59201, "long": -73.977453, "radii": 1326, "photos": 0}, {"code": "BK26", "name": "Kennedy Fried Chicken & Pizza", "category": "Pizza Place", "price": 1, "lat": 40.59250831604004, "long": -73.97802293300629, "radii": 1326, "photos": 0}, {"code": "BK26", "name": "Tommy's", "category": "Breakfast Spot", "price": 1, "lat": 40.588659507585646, "long": -73.98825131174901, "radii": 1326, "photos": 0}, {"code": "BK26", "name": "Cropsey Bagels", "category": "Bagel Shop", "price": 1, "lat": 40.58593, "long": -73.98772, "radii": 1326, "photos": 0}, {"code": "BK26", "name": "Golden Bell", "category": "Deli / Bodega", "price": 1, "lat": 40.59026598930359, "long": -73.97368311882019, "radii": 1326, "photos": 0}, {"code": "BK26", "name": "Leo's pizza", "category": "Pizza Place", "price": 1, "lat": 40.58224363107585, "long": -73.98102004932969, "radii": 1326, "photos": 0}, {"code": "BK26", "name": "Mamma Mia Pizzeria & Italian Restaurant", "category": "Pizza Place", "price": 1, "lat": 40.58795765430301, "long": -73.98968605366133, "radii": 1326, "photos": 0}, {"code": "BK26", "name": "Kings", "category": "Chinese Restaurant", "price": 1, "lat": 40.59021247737314, "long": -73.97349580414348, "radii": 1326, "photos": 0}, {"code": "BK26", "name": "Burger King", "category": "Fast Food Restaurant", "price": 1, "lat": 40.58315042452364, "long": -73.98658535793827, "radii": 1326, "photos": 0}, {"code": "BK26", "name": "One Stop Express Deli Grosery", "category": "Deli / Bodega", "price": 1, "lat": 40.5870333481294, "long": -73.98976065994738, "radii": 1326, "photos": 0}, {"code": "BK26", "name": "Bagel Shop", "category": "Bagel Shop", "price": 1, "lat": 40.58701493435839, "long": -73.99008360568854, "radii": 1326, "photos": 0}, {"code": "BK26", "name": "Empire Taco China", "category": "Chinese Restaurant", "price": 1, "lat": 40.5870716, "long": -73.99023086666666, "radii": 1326, "photos": 0}, {"code": "BK26", "name": "Dunkin'", "category": "Donut Shop", "price": 1, "lat": 40.58048217671372, "long": -73.98010177430896, "radii": 1326, "photos": 0}, {"code": "BK26", "name": "Aliza's Pizza", "category": "Pizza Place", "price": 1, "lat": 40.58297146666666, "long": -73.97467716666667, "radii": 1326, "photos": 0}, {"code": "BK26", "name": "Pete's Family Restaurant", "category": "Diner", "price": 1, "lat": 40.59034325431871, "long": -73.97175100960884, "radii": 1326, "photos": 0}, {"code": "BK26", "name": "Doroj's Fried Chicken & Pizza Inc.", "category": "Deli / Bodega", "price": 1, "lat": 40.5958576612131, "long": -73.98372319595289, "radii": 1326, "photos": 0}, {"code": "BK26", "name": "Manny's Cafe Family Restaurant", "category": "Caf\u00e9", "price": 1, "lat": 40.590455, "long": -73.971567, "radii": 1326, "photos": 0}, {"code": "BK26", "name": "Johnny's Pizzaria", "category": "Pizza Place", "price": 1, "lat": 40.596244, "long": -73.980022, "radii": 1326, "photos": 0}, {"code": "BK26", "name": "Tortillas King", "category": "Mexican Restaurant", "price": 1, "lat": 40.59477800995054, "long": -73.98798356563718, "radii": 1326, "photos": 0}, {"code": "BK26", "name": "New Jade Flower Open Kitchen Inn", "category": "Asian Restaurant", "price": 1, "lat": 40.590694060454034, "long": -73.9917041265678, "radii": 1326, "photos": 0}, {"code": "BK26", "name": "McDonald's", "category": "Fast Food Restaurant", "price": 1, "lat": 40.57957445081341, "long": -73.97507719695568, "radii": 1326, "photos": 0}, {"code": "BK26", "name": "Avenue U Eagle Kitchen", "category": "Chinese Restaurant", "price": 1, "lat": 40.596568118266276, "long": -73.97887357461185, "radii": 1326, "photos": 0}, {"code": "BK26", "name": "Pals Hero Shop", "category": "Sandwich Place", "price": 1, "lat": 40.58047, "long": -73.98549, "radii": 1326, "photos": 0}, {"code": "BK26", "name": "Subway at Stillwell Station", "category": "Sandwich Place", "price": 1, "lat": 40.57704472935803, "long": -73.98161917636325, "radii": 1326, "photos": 0}, {"code": "BK26", "name": "McDonald's", "category": "Fast Food Restaurant", "price": 1, "lat": 40.577185, "long": -73.9817862, "radii": 1326, "photos": 0}, {"code": "BK26", "name": "West 12th Grocery", "category": "Deli / Bodega", "price": 1, "lat": 40.57934345870011, "long": -73.97908018819395, "radii": 1326, "photos": 0}, {"code": "BK26", "name": "Pop's Restaurant", "category": "Breakfast Spot", "price": 1, "lat": 40.579216494092066, "long": -73.9835223264927, "radii": 1326, "photos": 0}, {"code": "BK26", "name": "My House Burgers & Shakes", "category": "Burger Joint", "price": 1, "lat": 40.590755, "long": -73.96944, "radii": 1326, "photos": 0}, {"code": "BK26", "name": "Coney Island Gyro", "category": "Falafel Restaurant", "price": 1, "lat": 40.579050167741954, "long": -73.98514936306759, "radii": 1326, "photos": 0}, {"code": "BK26", "name": "Bad Boys Pizza", "category": "Pizza Place", "price": 1, "lat": 40.59201927070425, "long": -73.99359997504202, "radii": 1326, "photos": 0}, {"code": "BK26", "name": "Tasty House", "category": "Chinese Restaurant", "price": 1, "lat": 40.59694247411142, "long": -73.97465516544969, "radii": 1326, "photos": 0}, {"code": "BK26", "name": "N&D pizza restaurant", "category": "Pizza Place", "price": 1, "lat": 40.59794089986757, "long": -73.97888874266563, "radii": 1326, "photos": 0}, {"code": "BK26", "name": "Kennedy Fried Chicken & Pizza", "category": "Fried Chicken Joint", "price": 1, "lat": 40.57874568083554, "long": -73.98728142014077, "radii": 1326, "photos": 0}, {"code": "BK26", "name": "Rocco's Famous Pizzeria", "category": "Pizza Place", "price": 1, "lat": 40.57970457610935, "long": -73.9733003445639, "radii": 1326, "photos": 0}, {"code": "BK26", "name": "Eastern Chinese Restaurant", "category": "Chinese Restaurant", "price": 1, "lat": 40.57967659419273, "long": -73.97264636667441, "radii": 1326, "photos": 0}, {"code": "BK26", "name": "MV Food Corp", "category": "Deli / Bodega", "price": 1, "lat": 40.5778007562677, "long": -73.97632532218057, "radii": 1326, "photos": 0}, {"code": "BK26", "name": "S&W Deli", "category": "Deli / Bodega", "price": 1, "lat": 40.57708449, "long": -73.9821320772171, "radii": 1326, "photos": 0}, {"code": "BK26", "name": "Alex Deli & Grocery", "category": "Taco Place", "price": 1, "lat": 40.577130245763456, "long": -73.98405032576706, "radii": 1326, "photos": 0}, {"code": "BK26", "name": "A&T Grocery", "category": "Deli / Bodega", "price": 1, "lat": 40.5769328468635, "long": -73.98153657710093, "radii": 1326, "photos": 0}, {"code": "BK26", "name": "Mamma Mia Pizzeria", "category": "Pizza Place", "price": 1, "lat": 40.593632821833985, "long": -73.99519536289426, "radii": 1326, "photos": 0}, {"code": "BK26", "name": "Double Happy Restaurant", "category": "Chinese Restaurant", "price": 1, "lat": 40.59768333716767, "long": -73.99113226265257, "radii": 1326, "photos": 0}, {"code": "BK26", "name": "Coney's Halal Stand", "category": "Food Truck", "price": 1, "lat": 40.58626988901115, "long": -73.9660401406364, "radii": 1326, "photos": 0}, {"code": "BK26", "name": "La Casa Bella", "category": "Italian Restaurant", "price": 2, "lat": 40.59057045120435, "long": -73.99166555672711, "radii": 1326, "photos": 0}, {"code": "BK26", "name": "Totonno's Pizzeria Napolitano", "category": "Pizza Place", "price": 2, "lat": 40.579036921346734, "long": -73.98397048627801, "radii": 1326, "photos": 0}, {"code": "BK26", "name": "Joe's of Avenue U", "category": "Italian Restaurant", "price": 2, "lat": 40.596970812269824, "long": -73.9736772701698, "radii": 1326, "photos": 0}, {"code": "BK26", "name": "Parkview Diner", "category": "Diner", "price": 2, "lat": 40.5834206120946, "long": -73.98628844949978, "radii": 1326, "photos": 0}, {"code": "BK26", "name": "Wood Spoon", "category": "Turkish Restaurant", "price": 2, "lat": 40.590706, "long": -73.968878, "radii": 1326, "photos": 0}, {"code": "BK26", "name": "Hana Sushi", "category": "Sushi Restaurant", "price": 2, "lat": 40.57949324706843, "long": -73.97408615611155, "radii": 1326, "photos": 0}, {"code": "BK26", "name": "Dunkin'", "category": "Donut Shop", "price": 2, "lat": 40.5959597, "long": -73.9843669, "radii": 1326, "photos": 0}, {"code": "BK26", "name": "Orion Palace", "category": "Restaurant", "price": 2, "lat": 40.58979868013057, "long": -73.97412653621146, "radii": 1326, "photos": 0}, {"code": "BK26", "name": "Sushi Avenue. X", "category": "Japanese Restaurant", "price": 2, "lat": 40.59038241515936, "long": -73.97381721193798, "radii": 1326, "photos": 0}, {"code": "BK26", "name": "El Mixteco Bar & Restaurant", "category": "Restaurant", "price": 2, "lat": 40.59466871, "long": -73.98170072, "radii": 1326, "photos": 0}, {"code": "BK26", "name": "Famous Chinese", "category": "Asian Restaurant", "price": 2, "lat": 40.590223851256084, "long": -73.97336379721524, "radii": 1326, "photos": 0}, {"code": "BK26", "name": "Avalon Pizza", "category": "Italian Restaurant", "price": 2, "lat": 40.59269314327608, "long": -73.9883660914967, "radii": 1326, "photos": 0}, {"code": "BK26", "name": "Paradise Caterers", "category": "Restaurant", "price": 2, "lat": 40.5960980747067, "long": -73.9825064977203, "radii": 1326, "photos": 0}, {"code": "BK26", "name": "Giovanni Italian Restaurant", "category": "Italian Restaurant", "price": 2, "lat": 40.59648, "long": -73.976948, "radii": 1326, "photos": 0}, {"code": "BK26", "name": "Tre Fontane", "category": "Italian Restaurant", "price": 2, "lat": 40.596462, "long": -73.975812, "radii": 1326, "photos": 0}, {"code": "BK26", "name": "David's Bakery & Grocery", "category": "Eastern European Restaurant", "price": 2, "lat": 40.596240653894895, "long": -73.97325474794536, "radii": 1326, "photos": 0}, {"code": "BK26", "name": "Eagle Cheese", "category": "Italian Restaurant", "price": 2, "lat": 40.59703894203841, "long": -73.97226756227025, "radii": 1326, "photos": 0}, {"code": "BK26", "name": "Chowtime", "category": "Asian Restaurant", "price": 2, "lat": 40.577053, "long": -73.98185, "radii": 1326, "photos": 0}, {"code": "BK26", "name": "Gargiulo's Restaurant", "category": "Italian Restaurant", "price": 3, "lat": 40.5766119224701, "long": -73.98217469192599, "radii": 1326, "photos": 0}, {"code": "BK26", "name": "Famous's Rotisserie & Grill", "category": "New American Restaurant", "price": 3, "lat": 40.57681816531952, "long": -73.98357534509887, "radii": 1326, "photos": 0}, {"code": "BK26", "name": "Orange Grill Brooklyn", "category": "BBQ Joint", "price": 4, "lat": 40.591168641816445, "long": -73.99205317040891, "radii": 1326, "photos": 0}, {"code": "BK27", "name": "Tasty Bagels", "category": "Bagel Shop", "price": 1, "lat": 40.60846159213572, "long": -74.00465706794076, "radii": 910, "photos": 0}, {"code": "BK27", "name": "Em Vietnamese Restaurant", "category": "Vietnamese Restaurant", "price": 1, "lat": 40.608544070570744, "long": -74.00476505815449, "radii": 910, "photos": 0}, {"code": "BK27", "name": "Panino Rustico", "category": "Italian Restaurant", "price": 1, "lat": 40.61040974446631, "long": -74.00310285413347, "radii": 910, "photos": 0}, {"code": "BK27", "name": "Lenny's Pizza", "category": "Pizza Place", "price": 1, "lat": 40.60490837787233, "long": -73.99871296726626, "radii": 910, "photos": 0}, {"code": "BK27", "name": "Tous Les Jour", "category": "Bakery", "price": 1, "lat": 40.60435768510481, "long": -73.99765735970983, "radii": 910, "photos": 0}, {"code": "BK27", "name": "Pizza Den", "category": "Pizza Place", "price": 1, "lat": 40.60734938457182, "long": -74.00244634806536, "radii": 910, "photos": 0}, {"code": "BK27", "name": "Subway Sandwich", "category": "Sandwich Place", "price": 1, "lat": 40.60633664092211, "long": -74.00117445934829, "radii": 910, "photos": 0}, {"code": "BK27", "name": "Pino's Ristorante", "category": "Italian Restaurant", "price": 1, "lat": 40.60095549134201, "long": -74.00080555696856, "radii": 910, "photos": 0}, {"code": "BK27", "name": "Dunkin'", "category": "Donut Shop", "price": 1, "lat": 40.61106859534181, "long": -74.00939522577767, "radii": 910, "photos": 0}, {"code": "BK27", "name": "Dunkin'", "category": "Donut Shop", "price": 1, "lat": 40.60595241110425, "long": -73.9969858543112, "radii": 910, "photos": 0}, {"code": "BK27", "name": "Bath Beach Diner", "category": "Diner", "price": 1, "lat": 40.60084932989763, "long": -74.00078836993349, "radii": 910, "photos": 0}, {"code": "BK27", "name": "Papa John's Pizza", "category": "Pizza Place", "price": 1, "lat": 40.6090990032277, "long": -74.006072244792, "radii": 910, "photos": 0}, {"code": "BK27", "name": "Dunkin'", "category": "Donut Shop", "price": 1, "lat": 40.60746046370299, "long": -74.00215922883604, "radii": 910, "photos": 0}, {"code": "BK27", "name": "KING'S WOK", "category": "Chinese Restaurant", "price": 1, "lat": 40.60415006, "long": -74.00665012, "radii": 910, "photos": 0}, {"code": "BK27", "name": "Benny's Deli", "category": "Deli / Bodega", "price": 1, "lat": 40.605691867206716, "long": -74.0081817848289, "radii": 910, "photos": 0}, {"code": "BK27", "name": "China City II", "category": "Chinese Restaurant", "price": 1, "lat": 40.605745696655106, "long": -74.00692179371067, "radii": 910, "photos": 0}, {"code": "BK27", "name": "Nicky's Pizza", "category": "Pizza Place", "price": 1, "lat": 40.604211, "long": -74.00682166295006, "radii": 910, "photos": 0}, {"code": "BK27", "name": "Fernando's Pizzeria", "category": "Pizza Place", "price": 1, "lat": 40.60562096431406, "long": -74.00915730899963, "radii": 910, "photos": 0}, {"code": "BK27", "name": "McDonald's", "category": "Fast Food Restaurant", "price": 1, "lat": 40.604786, "long": -73.99826, "radii": 910, "photos": 0}, {"code": "BK27", "name": "Jiangnan Pancake", "category": "Chinese Restaurant", "price": 1, "lat": 40.606836, "long": -74.002368, "radii": 910, "photos": 0}, {"code": "BK27", "name": "Akei Bakery & Cafe Inc.", "category": "Bakery", "price": 1, "lat": 40.60759968, "long": -74.00218, "radii": 910, "photos": 0}, {"code": "BK27", "name": "Lenco Diagnostic Laboratories", "category": "Pizza Place", "price": 1, "lat": 40.606508, "long": -74.001174, "radii": 910, "photos": 0}, {"code": "BK27", "name": "Bath Ave Deli", "category": "Deli / Bodega", "price": 1, "lat": 40.60885337276858, "long": -74.01123129084691, "radii": 910, "photos": 0}, {"code": "BK27", "name": "Three Brothers Fruit & Ice", "category": "Food Truck", "price": 1, "lat": 40.60994265093133, "long": -74.00705705666762, "radii": 910, "photos": 0}, {"code": "BK27", "name": "Welcome Seafood Restaurant", "category": "Chinese Restaurant", "price": 1, "lat": 40.60239878030012, "long": -73.99904604649204, "radii": 910, "photos": 0}, {"code": "BK27", "name": "La Villa", "category": "Pizza Place", "price": 1, "lat": 40.611122, "long": -74.008222, "radii": 910, "photos": 0}, {"code": "BK27", "name": "Mike's Diner", "category": "Diner", "price": 1, "lat": 40.611692, "long": -74.010158, "radii": 910, "photos": 0}, {"code": "BK27", "name": "Reliable bakery", "category": "Bakery", "price": 1, "lat": 40.60941280488534, "long": -73.9998494580509, "radii": 910, "photos": 0}, {"code": "BK27", "name": "Mr. Bun \u5305\u5927\u4eba", "category": "Chinese Restaurant", "price": 1, "lat": 40.60385175312586, "long": -73.99710920634705, "radii": 910, "photos": 0}, {"code": "BK27", "name": "Bagel Chief", "category": "Bagel Shop", "price": 1, "lat": 40.59895553157361, "long": -73.99956252573816, "radii": 910, "photos": 0}, {"code": "BK27", "name": "Fuki Sushi Japanese Restaurant", "category": "Japanese Restaurant", "price": 2, "lat": 40.60763554919059, "long": -74.00218674324164, "radii": 910, "photos": 0}, {"code": "BK27", "name": "Kasumi Sushi & BBQ Restaurant", "category": "Japanese Restaurant", "price": 2, "lat": 40.606219307900254, "long": -74.00097474094187, "radii": 910, "photos": 0}, {"code": "BK27", "name": "New Ruans", "category": "Chinese Restaurant", "price": 2, "lat": 40.60513670431751, "long": -73.99902556161967, "radii": 910, "photos": 0}, {"code": "BK27", "name": "Lazzat Restaurant", "category": "Restaurant", "price": 2, "lat": 40.60161865426119, "long": -74.00151939557935, "radii": 910, "photos": 0}, {"code": "BK27", "name": "Chris' Restaurant", "category": "Eastern European Restaurant", "price": 2, "lat": 40.60629224425881, "long": -74.00110128414389, "radii": 910, "photos": 0}, {"code": "BK27", "name": "Casa Edesia Pizza and Grill", "category": "Italian Restaurant", "price": 2, "lat": 40.600029694718316, "long": -74.0025917316845, "radii": 910, "photos": 0}, {"code": "BK27", "name": "Outback Steakhouse", "category": "Steakhouse", "price": 2, "lat": 40.611629933589526, "long": -74.00938709119808, "radii": 910, "photos": 0}, {"code": "BK27", "name": "Shiki Japanese Hibachi", "category": "Japanese Restaurant", "price": 2, "lat": 40.60639266204863, "long": -74.00096779011817, "radii": 910, "photos": 0}, {"code": "BK27", "name": "La granja", "category": "Peruvian Restaurant", "price": 2, "lat": 40.60217926376366, "long": -74.00294916040534, "radii": 910, "photos": 0}, {"code": "BK27", "name": "Koo Koo Chicken", "category": "Malay Restaurant", "price": 2, "lat": 40.60863198884503, "long": -74.0050069783472, "radii": 910, "photos": 0}, {"code": "BK27", "name": "Healthalicious", "category": "American Restaurant", "price": 2, "lat": 40.60494514330043, "long": -73.99888516588128, "radii": 910, "photos": 0}, {"code": "BK27", "name": "Samuri Fusion Sushi", "category": "Sushi Restaurant", "price": 2, "lat": 40.60849896239916, "long": -74.00470886471695, "radii": 910, "photos": 0}, {"code": "BK27", "name": "Ichi Sushi", "category": "Japanese Restaurant", "price": 2, "lat": 40.60404941998062, "long": -73.99741244318324, "radii": 910, "photos": 0}, {"code": "BK27", "name": "Pacos Tacos", "category": "Mexican Restaurant", "price": 2, "lat": 40.61130223591904, "long": -74.00940194777748, "radii": 910, "photos": 0}, {"code": "BK27", "name": "Nagoya Sushi", "category": "Japanese Restaurant", "price": 2, "lat": 40.60516119006395, "long": -73.99924699427712, "radii": 910, "photos": 0}, {"code": "BK27", "name": "HK Tea & Sushi", "category": "Asian Restaurant", "price": 2, "lat": 40.60408551854106, "long": -73.99736413345533, "radii": 910, "photos": 0}, {"code": "BK27", "name": "La Chacra", "category": "Spanish Restaurant", "price": 2, "lat": 40.601976, "long": -74.002899, "radii": 910, "photos": 0}, {"code": "BK27", "name": "Mezcal's", "category": "Mexican Restaurant", "price": 2, "lat": 40.61168335732437, "long": -74.00983084142732, "radii": 910, "photos": 0}, {"code": "BK27", "name": "Golden Palace", "category": "Dim Sum Restaurant", "price": 2, "lat": 40.6099883980193, "long": -74.00688689313584, "radii": 910, "photos": 0}, {"code": "BK27", "name": "Kushi", "category": "Japanese Restaurant", "price": 2, "lat": 40.605282, "long": -73.99974, "radii": 910, "photos": 0}, {"code": "BK27", "name": "Boat House", "category": "Cajun / Creole Restaurant", "price": 2, "lat": 40.605530774069145, "long": -73.99973219841893, "radii": 910, "photos": 0}, {"code": "BK27", "name": "Choi Fook", "category": "Dim Sum Restaurant", "price": 2, "lat": 40.60380104533078, "long": -73.99706030622109, "radii": 910, "photos": 0}, {"code": "BK27", "name": "Tommaso's", "category": "Italian Restaurant", "price": 3, "lat": 40.61156137032117, "long": -74.01196916160002, "radii": 910, "photos": 0}, {"code": "BK28", "name": "Villabate Alba", "category": "Bakery", "price": 1, "lat": 40.616175751183334, "long": -73.99315065794524, "radii": 1201, "photos": 0}, {"code": "BK28", "name": "Il Fornaretto Bakery", "category": "Bakery", "price": 1, "lat": 40.613940136924604, "long": -73.99935895452214, "radii": 1201, "photos": 0}, {"code": "BK28", "name": "Panino Rustico", "category": "Italian Restaurant", "price": 1, "lat": 40.61040974446631, "long": -74.00310285413347, "radii": 1201, "photos": 0}, {"code": "BK28", "name": "Orchid Dynasty", "category": "Chinese Restaurant", "price": 1, "lat": 40.614022781810874, "long": -74.00056726978333, "radii": 1201, "photos": 0}, {"code": "BK28", "name": "Bagels plus", "category": "Bagel Shop", "price": 1, "lat": 40.615630247823496, "long": -73.99993590549686, "radii": 1201, "photos": 0}, {"code": "BK28", "name": "DaVinci's Pizzeria", "category": "Pizza Place", "price": 1, "lat": 40.618882, "long": -73.990799, "radii": 1201, "photos": 0}, {"code": "BK28", "name": "Golden City Seafood", "category": "Chinese Restaurant", "price": 1, "lat": 40.61687966135929, "long": -73.98575203860716, "radii": 1201, "photos": 0}, {"code": "BK28", "name": "Tasty Bagels", "category": "Bagel Shop", "price": 1, "lat": 40.60846159213572, "long": -74.00465706794076, "radii": 1201, "photos": 0}, {"code": "BK28", "name": "Em Vietnamese Restaurant", "category": "Vietnamese Restaurant", "price": 1, "lat": 40.608544070570744, "long": -74.00476505815449, "radii": 1201, "photos": 0}, {"code": "BK28", "name": "Lenny's Pizza", "category": "Pizza Place", "price": 1, "lat": 40.60490837787233, "long": -73.99871296726626, "radii": 1201, "photos": 0}, {"code": "BK28", "name": "Bagel Town", "category": "Bagel Shop", "price": 1, "lat": 40.61019916148078, "long": -73.98950989286807, "radii": 1201, "photos": 0}, {"code": "BK28", "name": "J & V Pizzeria", "category": "Pizza Place", "price": 1, "lat": 40.619841119118966, "long": -73.98953923796894, "radii": 1201, "photos": 0}, {"code": "BK28", "name": "Rimini Pastry Shoppe", "category": "Bakery", "price": 1, "lat": 40.611634818730415, "long": -73.98386460955626, "radii": 1201, "photos": 0}, {"code": "BK28", "name": "Pizza", "category": "Pizza Place", "price": 1, "lat": 40.603846, "long": -73.99561, "radii": 1201, "photos": 0}, {"code": "BK28", "name": "Spicy Bampa", "category": "Chinese Restaurant", "price": 1, "lat": 40.61646797371895, "long": -73.99296675268025, "radii": 1201, "photos": 0}, {"code": "BK28", "name": "Tous Les Jour", "category": "Bakery", "price": 1, "lat": 40.60435768510481, "long": -73.99765735970983, "radii": 1201, "photos": 0}, {"code": "BK28", "name": "Grotta Azzurra", "category": "Pizza Place", "price": 1, "lat": 40.603751, "long": -73.995435, "radii": 1201, "photos": 0}, {"code": "BK28", "name": "Silver Star Restaurant", "category": "Chinese Restaurant", "price": 1, "lat": 40.620417089958046, "long": -73.98882794517985, "radii": 1201, "photos": 0}, {"code": "BK28", "name": "Golden Bun Bakery", "category": "Bakery", "price": 1, "lat": 40.60196235708771, "long": -73.99402451118084, "radii": 1201, "photos": 0}, {"code": "BK28", "name": "Cannoli Plus", "category": "Bakery", "price": 1, "lat": 40.62040902165373, "long": -73.99852161996114, "radii": 1201, "photos": 0}, {"code": "BK28", "name": "La Bella Pizza Express", "category": "Pizza Place", "price": 1, "lat": 40.60200450936564, "long": -73.99412688007006, "radii": 1201, "photos": 0}, {"code": "BK28", "name": "Torre's Pizzeria & Italian Restaurant", "category": "Pizza Place", "price": 1, "lat": 40.61194499127096, "long": -73.98347741444184, "radii": 1201, "photos": 0}, {"code": "BK28", "name": "Pizza Daddy", "category": "Pizza Place", "price": 1, "lat": 40.61376045135105, "long": -73.9815119805575, "radii": 1201, "photos": 0}, {"code": "BK28", "name": "Lily Bloom Bakery", "category": "Bakery", "price": 1, "lat": 40.601667389191796, "long": -73.9933523107573, "radii": 1201, "photos": 0}, {"code": "BK28", "name": "Caff\u00e9 Bene", "category": "Caf\u00e9", "price": 1, "lat": 40.620030521486115, "long": -73.9891354711205, "radii": 1201, "photos": 0}, {"code": "BK28", "name": "Fu Kee Restaurant \u5bcc\u8a18", "category": "Chinese Restaurant", "price": 1, "lat": 40.60179508639991, "long": -73.99352210859865, "radii": 1201, "photos": 0}, {"code": "BK28", "name": "Jin Jin Hong Kong Cafe \u6d25\u6d25\u9999\u6e2f\u8336\u9910\u5ef3", "category": "Asian Restaurant", "price": 1, "lat": 40.62036234420839, "long": -73.98905602259754, "radii": 1201, "photos": 0}, {"code": "BK28", "name": "Pizza Den", "category": "Pizza Place", "price": 1, "lat": 40.60734938457182, "long": -74.00244634806536, "radii": 1201, "photos": 0}, {"code": "BK28", "name": "Columbus Restaurant & Deli", "category": "Diner", "price": 1, "lat": 40.61835605747617, "long": -73.9911547107157, "radii": 1201, "photos": 0}, {"code": "BK28", "name": "Popeyes Louisiana Kitchen", "category": "Fast Food Restaurant", "price": 1, "lat": 40.61872, "long": -73.99072, "radii": 1201, "photos": 0}, {"code": "BK28", "name": "Dunkin'", "category": "Donut Shop", "price": 1, "lat": 40.61106859534181, "long": -74.00939522577767, "radii": 1201, "photos": 0}, {"code": "BK28", "name": "Bo Sing Bakery \u5bf6\u57ce", "category": "Bakery", "price": 1, "lat": 40.61301966011868, "long": -73.9822378798408, "radii": 1201, "photos": 0}, {"code": "BK28", "name": "Sbarro", "category": "Pizza Place", "price": 1, "lat": 40.620453, "long": -73.992395, "radii": 1201, "photos": 0}, {"code": "BK28", "name": "Ta40 Cafe \u69c4\u9999\u8336\u9910\u5ef3", "category": "Chinese Restaurant", "price": 1, "lat": 40.61309397901591, "long": -73.98222449193058, "radii": 1201, "photos": 0}, {"code": "BK28", "name": "Dale Bagels", "category": "Bagel Shop", "price": 1, "lat": 40.62080997574509, "long": -73.98843340386655, "radii": 1201, "photos": 0}, {"code": "BK28", "name": "Umai Ramen", "category": "Ramen Restaurant", "price": 1, "lat": 40.619886115709825, "long": -73.98955979680346, "radii": 1201, "photos": 0}, {"code": "BK28", "name": "Dunkin'", "category": "Donut Shop", "price": 1, "lat": 40.61991690098762, "long": -73.98908282077838, "radii": 1201, "photos": 0}, {"code": "BK28", "name": "Fay Wong Cafe Bakery \u8f1d\u714c", "category": "Chinese Restaurant", "price": 1, "lat": 40.62067709293358, "long": -73.98861891199293, "radii": 1201, "photos": 0}, {"code": "BK28", "name": "New Jin Xin Restaurant", "category": "Chinese Restaurant", "price": 1, "lat": 40.617707680898654, "long": -73.98902607371383, "radii": 1201, "photos": 0}, {"code": "BK28", "name": "H & L Bakery Inc.", "category": "Bakery", "price": 1, "lat": 40.618924, "long": -73.999209, "radii": 1201, "photos": 0}, {"code": "BK28", "name": "Lotto Beer Deli", "category": "Deli / Bodega", "price": 1, "lat": 40.61905391370099, "long": -73.99910293411031, "radii": 1201, "photos": 0}, {"code": "BK28", "name": "Dunkin'", "category": "Donut Shop", "price": 1, "lat": 40.61276659663538, "long": -73.98224918650817, "radii": 1201, "photos": 0}, {"code": "BK28", "name": "Tung Tung Restaurant Inc", "category": "Chinese Restaurant", "price": 1, "lat": 40.618874, "long": -73.99068, "radii": 1201, "photos": 0}, {"code": "BK28", "name": "Champs Deli & Grocery", "category": "Deli / Bodega", "price": 1, "lat": 40.61971686557585, "long": -73.99320227374476, "radii": 1201, "photos": 0}, {"code": "BK28", "name": "Tacos Lupita Cart", "category": "Food Truck", "price": 1, "lat": 40.61893819615585, "long": -73.99009925734258, "radii": 1201, "photos": 0}, {"code": "BK28", "name": "Malay Bakery Inc", "category": "Bakery", "price": 1, "lat": 40.619773898882144, "long": -73.9987214016761, "radii": 1201, "photos": 0}, {"code": "BK28", "name": "gourmet deli grill", "category": "Deli / Bodega", "price": 1, "lat": 40.61932624562847, "long": -73.98972048733542, "radii": 1201, "photos": 0}, {"code": "BK28", "name": "News Cafe Stand", "category": "Caf\u00e9", "price": 1, "lat": 40.61978619797135, "long": -73.98965161998106, "radii": 1201, "photos": 0}, {"code": "BK28", "name": "Hong Bao Bakery Inc.", "category": "Bakery", "price": 1, "lat": 40.619910633372875, "long": -73.9894640004363, "radii": 1201, "photos": 0}, {"code": "BK28", "name": "lucky lotto", "category": "Deli / Bodega", "price": 1, "lat": 40.61994979074404, "long": -73.98930728283855, "radii": 1201, "photos": 0}, {"code": "BK28", "name": "Tuzi Cafe", "category": "Caf\u00e9", "price": 1, "lat": 40.621015136558555, "long": -73.99846644034649, "radii": 1201, "photos": 0}, {"code": "BK28", "name": "Fei Huang Bakery", "category": "Bakery", "price": 1, "lat": 40.61721345031308, "long": -73.9851497217527, "radii": 1201, "photos": 0}, {"code": "BK28", "name": "China King", "category": "Chinese Restaurant", "price": 1, "lat": 40.62115578396966, "long": -73.99823689287338, "radii": 1201, "photos": 0}, {"code": "BK28", "name": "VIP Coffee, Inc \u516c\u7235\u897f\u9905", "category": "Bakery", "price": 1, "lat": 40.61248158184328, "long": -73.98286058063263, "radii": 1201, "photos": 0}, {"code": "BK28", "name": "Star Deli & Grocery", "category": "Deli / Bodega", "price": 1, "lat": 40.6130037125406, "long": -73.9825983242708, "radii": 1201, "photos": 0}, {"code": "BK28", "name": "La Villa", "category": "Pizza Place", "price": 1, "lat": 40.611122, "long": -74.008222, "radii": 1201, "photos": 0}, {"code": "BK28", "name": "Friend's Villa Restaurant", "category": "Chinese Restaurant", "price": 1, "lat": 40.62089009350265, "long": -73.988683131407, "radii": 1201, "photos": 0}, {"code": "BK28", "name": "Caffee", "category": "Caf\u00e9", "price": 1, "lat": 40.62092596652842, "long": -74.00225967250508, "radii": 1201, "photos": 0}, {"code": "BK28", "name": "Lin Garden \u6797\u5bb6\u5712", "category": "Chinese Restaurant", "price": 1, "lat": 40.618024515520396, "long": -73.98401498794556, "radii": 1201, "photos": 0}, {"code": "BK28", "name": "Hop Fa Bakery \u5408\u767c", "category": "Bakery", "price": 1, "lat": 40.61353416323247, "long": -73.98173162376806, "radii": 1201, "photos": 0}, {"code": "BK28", "name": "J J Bakery Inc.", "category": "Bakery", "price": 1, "lat": 40.61853360616097, "long": -73.98444257176791, "radii": 1201, "photos": 0}, {"code": "BK28", "name": "Halal Cart Bay Parkway - N Train Station", "category": "Food Truck", "price": 1, "lat": 40.61272602159495, "long": -73.9815537946694, "radii": 1201, "photos": 0}, {"code": "BK28", "name": "Verona Pizza", "category": "Pizza Place", "price": 1, "lat": 40.618458917424356, "long": -73.98378748011314, "radii": 1201, "photos": 0}, {"code": "BK28", "name": "il Colosseo", "category": "Italian Restaurant", "price": 2, "lat": 40.61222053559676, "long": -73.9974361996248, "radii": 1201, "photos": 0}, {"code": "BK28", "name": "Lioni Italian Heroes", "category": "Sandwich Place", "price": 2, "lat": 40.61575687459769, "long": -74.00489937881197, "radii": 1201, "photos": 0}, {"code": "BK28", "name": "Tenzan", "category": "Sushi Restaurant", "price": 2, "lat": 40.6152654172336, "long": -73.99404636075737, "radii": 1201, "photos": 0}, {"code": "BK28", "name": "Blue Agave Mexican Restaurant & Bar", "category": "Mexican Restaurant", "price": 2, "lat": 40.617897, "long": -73.999, "radii": 1201, "photos": 0}, {"code": "BK28", "name": "Papa Pasquale", "category": "Italian Restaurant", "price": 2, "lat": 40.615536666254144, "long": -74.00513683801918, "radii": 1201, "photos": 0}, {"code": "BK28", "name": "Fuki Sushi Japanese Restaurant", "category": "Japanese Restaurant", "price": 2, "lat": 40.60763554919059, "long": -74.00218674324164, "radii": 1201, "photos": 0}, {"code": "BK28", "name": "New Ruans", "category": "Chinese Restaurant", "price": 2, "lat": 40.60513670431751, "long": -73.99902556161967, "radii": 1201, "photos": 0}, {"code": "BK28", "name": "Ichi Sushi", "category": "Sushi Restaurant", "price": 2, "lat": 40.60177410615188, "long": -73.99386866086485, "radii": 1201, "photos": 0}, {"code": "BK28", "name": "Europa Pizzeria", "category": "Italian Restaurant", "price": 2, "lat": 40.616582983467644, "long": -73.98570788105, "radii": 1201, "photos": 0}, {"code": "BK28", "name": "Kasumi Sushi & BBQ Restaurant", "category": "Japanese Restaurant", "price": 2, "lat": 40.606219307900254, "long": -74.00097474094187, "radii": 1201, "photos": 0}, {"code": "BK28", "name": "Chris' Restaurant", "category": "Eastern European Restaurant", "price": 2, "lat": 40.60629224425881, "long": -74.00110128414389, "radii": 1201, "photos": 0}, {"code": "BK28", "name": "Istanbul Turkish Fast Food & Restaurant", "category": "Turkish Restaurant", "price": 2, "lat": 40.60177064956682, "long": -73.99385594134259, "radii": 1201, "photos": 0}, {"code": "BK28", "name": "Outback Steakhouse", "category": "Steakhouse", "price": 2, "lat": 40.611629933589526, "long": -74.00938709119808, "radii": 1201, "photos": 0}, {"code": "BK28", "name": "Longevousjoy", "category": "Sushi Restaurant", "price": 2, "lat": 40.613017754915916, "long": -73.98229277447399, "radii": 1201, "photos": 0}, {"code": "BK28", "name": "Shiki Japanese Hibachi", "category": "Japanese Restaurant", "price": 2, "lat": 40.60639266204863, "long": -74.00096779011817, "radii": 1201, "photos": 0}, {"code": "BK28", "name": "Kuho Sushi", "category": "Sushi Restaurant", "price": 2, "lat": 40.6206604018997, "long": -73.992304798904, "radii": 1201, "photos": 0}, {"code": "BK28", "name": "Ichi Sushi", "category": "Japanese Restaurant", "price": 2, "lat": 40.60404941998062, "long": -73.99741244318324, "radii": 1201, "photos": 0}, {"code": "BK28", "name": "Good Day Seafood Restaurant", "category": "Chinese Restaurant", "price": 2, "lat": 40.62083433011701, "long": -73.98868475501934, "radii": 1201, "photos": 0}, {"code": "BK28", "name": "Pacos Tacos", "category": "Mexican Restaurant", "price": 2, "lat": 40.61130223591904, "long": -74.00940194777748, "radii": 1201, "photos": 0}, {"code": "BK28", "name": "Ecstasy Lounge Inc. Chinese BBQ Restaurant", "category": "Asian Restaurant", "price": 2, "lat": 40.618714265236505, "long": -73.99054230250412, "radii": 1201, "photos": 0}, {"code": "BK28", "name": "King Rice Inc. \u84ee\u65fa", "category": "Chinese Restaurant", "price": 2, "lat": 40.61882663144751, "long": -73.99047770417177, "radii": 1201, "photos": 0}, {"code": "BK28", "name": "65 Shabu Shabu", "category": "Japanese Restaurant", "price": 2, "lat": 40.620637, "long": -73.992323, "radii": 1201, "photos": 0}, {"code": "BK28", "name": "Bari Pork Store", "category": "Italian Restaurant", "price": 2, "lat": 40.61986124815287, "long": -73.9895967874407, "radii": 1201, "photos": 0}, {"code": "BK28", "name": "Queztal Restaurant", "category": "Caribbean Restaurant", "price": 2, "lat": 40.6207963787563, "long": -73.99222515527707, "radii": 1201, "photos": 0}, {"code": "BK28", "name": "Golden Palace", "category": "Dim Sum Restaurant", "price": 2, "lat": 40.6099883980193, "long": -74.00688689313584, "radii": 1201, "photos": 0}, {"code": "BK28", "name": "Neisan Kitchen", "category": "Asian Restaurant", "price": 2, "lat": 40.620397, "long": -73.988952, "radii": 1201, "photos": 0},