[{"code": "BK09", "name": "Dellarocco's", "category": "Pizza Place", "price": 2, "lat": 40.69499209990746, "long": -73.99592429396137, "radii": 496, "photos": 0}, {"code": "BK09", "name": "The Binc", "category": "Bar", "price": 2, "lat": 40.69925034923298, "long": -73.99211296717898, "radii": 496, "photos": 0}, {"code": "BK09", "name": "Henry Street Ale House", "category": "Pub", "price": 2, "lat": 40.699251, "long": -73.992284, "radii": 496, "photos": 0}, {"code": "BK09", "name": "Custom House", "category": "Bar", "price": 2, "lat": 40.69473055484144, "long": -73.99383832468709, "radii": 496, "photos": 0}, {"code": "BK09", "name": "La Barrita", "category": "Bar", "price": 2, "lat": 40.69456465048022, "long": -73.99417715601402, "radii": 496, "photos": 0}, {"code": "BK09", "name": "O'Keefe's Bar & Grill", "category": "Bar", "price": 2, "lat": 40.69206199124401, "long": -73.99118453406872, "radii": 496, "photos": 0}, {"code": "BK09", "name": "Two Twenty Sports Bar at Park Plaza Diner", "category": "Bar", "price": 2, "lat": 40.69785507394764, "long": -73.99147677040752, "radii": 496, "photos": 0}, {"code": "BK09", "name": "Bevacco", "category": "Italian Restaurant", "price": 3, "lat": 40.69934693656375, "long": -73.99213688652104, "radii": 496, "photos": 0}, {"code": "BK09", "name": "Lounge 132", "category": "Lounge", "price": 3, "lat": 40.694676689474115, "long": -73.99397873738853, "radii": 496, "photos": 0}, {"code": "BK09", "name": "Entertainment 720, Ltd.", "category": "Nightclub", "price": 3, "lat": 40.696864, "long": -73.996409, "radii": 496, "photos": 0}, {"code": "BK17", "name": "tabu lounge", "category": "Hookah Bar", "price": 1, "lat": 40.59324574874239, "long": -73.94802814578783, "radii": 1600, "photos": 0}, {"code": "BK17", "name": "Love 69 Bar", "category": "Hookah Bar", "price": 1, "lat": 40.58804753238327, "long": -73.9558749492916, "radii": 1600, "photos": 0}, {"code": "BK17", "name": "TGI Fridays", "category": "American Restaurant", "price": 1, "lat": 40.586918, "long": -73.928955, "radii": 1600, "photos": 0}, {"code": "BK17", "name": "Tap Beer Brewpub & Store", "category": "Sports Bar", "price": 1, "lat": 40.584254154209574, "long": -73.9507750393318, "radii": 1600, "photos": 0}, {"code": "BK17", "name": "Puff Cafe", "category": "Hookah Bar", "price": 1, "lat": 40.58797899047161, "long": -73.95589216915374, "radii": 1600, "photos": 0}, {"code": "BK17", "name": "J.P.'s Bar", "category": "Dive Bar", "price": 1, "lat": 40.600835553126096, "long": -73.9408568134846, "radii": 1600, "photos": 0}, {"code": "BK17", "name": "Trio Ristorante Pizza & Grill", "category": "Pizza Place", "price": 1, "lat": 40.59953, "long": -73.95235500000001, "radii": 1600, "photos": 0}, {"code": "BK17", "name": "Blu", "category": "Bar", "price": 2, "lat": 40.58365623982042, "long": -73.95034882875768, "radii": 1600, "photos": 0}, {"code": "BK17", "name": "Cats on the Bay", "category": "Restaurant", "price": 2, "lat": 40.583823962132676, "long": -73.94684939065917, "radii": 1600, "photos": 0}, {"code": "BK17", "name": "Wheeler's Restaurant", "category": "Bar", "price": 2, "lat": 40.58577373200017, "long": -73.951736934872, "radii": 1600, "photos": 0}, {"code": "BK17", "name": "The Brass Rail", "category": "Karaoke Bar", "price": 2, "lat": 40.58877890304311, "long": -73.94750706268368, "radii": 1600, "photos": 0}, {"code": "BK17", "name": "Applebee's Grill + Bar", "category": "American Restaurant", "price": 2, "lat": 40.58388785, "long": -73.94323487, "radii": 1600, "photos": 0}, {"code": "BK17", "name": "the gather inn again", "category": "Bar", "price": 2, "lat": 40.59279871182426, "long": -73.92542049159972, "radii": 1600, "photos": 0}, {"code": "BK17", "name": "Tamaqua Bar & Marina", "category": "Bar", "price": 2, "lat": 40.59442275844327, "long": -73.92998920159911, "radii": 1600, "photos": 0}, {"code": "BK17", "name": "Anyway Cafe", "category": "Bar", "price": 2, "lat": 40.5770693637487, "long": -73.95250216159461, "radii": 1600, "photos": 0}, {"code": "BK17", "name": "Zamaan Bar & Restaurant", "category": "Bar", "price": 2, "lat": 40.592888, "long": -73.94804, "radii": 1600, "photos": 0}, {"code": "BK17", "name": "Beach Bar", "category": "Bar", "price": 2, "lat": 40.592772126005926, "long": -73.92530052406616, "radii": 1600, "photos": 0}, {"code": "BK17", "name": "Opera Cafe Lounge", "category": "Turkish Restaurant", "price": 3, "lat": 40.58384173638549, "long": -73.94448064550176, "radii": 1600, "photos": 0}, {"code": "BK17", "name": "Il Fornetto", "category": "Italian Restaurant", "price": 3, "lat": 40.58337792928743, "long": -73.93948662464095, "radii": 1600, "photos": 0}, {"code": "BK17", "name": "Falada", "category": "Lounge", "price": 3, "lat": 40.583802820703795, "long": -73.94781158002093, "radii": 1600, "photos": 0}, {"code": "BK17", "name": "Esquire Lounge", "category": "Lounge", "price": 3, "lat": 40.58691572014382, "long": -73.95253658294678, "radii": 1600, "photos": 0}, {"code": "BK17", "name": "Chocolat", "category": "Lounge", "price": 3, "lat": 40.59300473422855, "long": -73.94791346863892, "radii": 1600, "photos": 0}, {"code": "BK17", "name": "Amici cafe", "category": "Cocktail Bar", "price": 3, "lat": 40.59431824263305, "long": -73.92702629703442, "radii": 1600, "photos": 0}, {"code": "BK19", "name": "Cafe Max", "category": "Bar", "price": 2, "lat": 40.578243352259484, "long": -73.95943087120612, "radii": 643, "photos": 0}, {"code": "BK19", "name": "A & L Night Club Karaoke Inc", "category": "Karaoke Bar", "price": 2, "lat": 40.57857110859175, "long": -73.95965969456094, "radii": 643, "photos": 0}, {"code": "BK19", "name": "Velvet Rope Lounge", "category": "Lounge", "price": 3, "lat": 40.577514210027644, "long": -73.95949301557947, "radii": 643, "photos": 0}, {"code": "BK19", "name": "Ukraine", "category": "Lounge", "price": 3, "lat": 40.58019032757338, "long": -73.96525380672637, "radii": 643, "photos": 0}, {"code": "BK21", "name": "Ruby's Bar & Grill", "category": "Bar", "price": 1, "lat": 40.57329205462543, "long": -73.98016023878122, "radii": 2002, "photos": 0}, {"code": "BK21", "name": "Steeplechase Beer Garden", "category": "Beer Garden", "price": 1, "lat": 40.57516339567194, "long": -73.98370312597298, "radii": 2002, "photos": 0}, {"code": "BK21", "name": "the red doors", "category": "Burger Joint", "price": 1, "lat": 40.57565118920452, "long": -73.98236301864728, "radii": 2002, "photos": 0}, {"code": "BK21", "name": "Draft Barn Beach", "category": "Beer Garden", "price": 1, "lat": 40.574514, "long": -73.980839, "radii": 2002, "photos": 0}, {"code": "BK21", "name": "\u039b\u039b\u039b \u03b2\u03b1\u03c1", "category": "Pub", "price": 1, "lat": 40.580833654332785, "long": -73.97428784381152, "radii": 2002, "photos": 0}, {"code": "BK21", "name": "Coney Island Brewing Co.", "category": "Brewery", "price": 2, "lat": 40.57518859380483, "long": -73.98399145930985, "radii": 2002, "photos": 0}, {"code": "BK21", "name": "Freak Bar", "category": "Bar", "price": 2, "lat": 40.575405181580344, "long": -73.97972052194929, "radii": 2002, "photos": 0}, {"code": "BK21", "name": "Place to Beach", "category": "Mexican Restaurant", "price": 2, "lat": 40.573189343365975, "long": -73.98110974531059, "radii": 2002, "photos": 0}, {"code": "BK21", "name": "Coney Island Bar & Grill", "category": "Bar", "price": 2, "lat": 40.575637895891376, "long": -73.97988963626271, "radii": 2002, "photos": 0}, {"code": "BK21", "name": "The Red Doors Bar and Grill", "category": "Restaurant", "price": 2, "lat": 40.57564211754635, "long": -73.97990196709108, "radii": 2002, "photos": 0}, {"code": "BK21", "name": "Bratva", "category": "Bar", "price": 2, "lat": 40.57560972471349, "long": -73.97987211917895, "radii": 2002, "photos": 0}, {"code": "BK21", "name": "Oceanview Bites", "category": "Restaurant", "price": 2, "lat": 40.573923, "long": -73.973835, "radii": 2002, "photos": 0}, {"code": "BK21", "name": "Margarita Island", "category": "Cocktail Bar", "price": 3, "lat": 40.57484354961254, "long": -73.97935368211385, "radii": 2002, "photos": 0}, {"code": "BK21", "name": "Keyfood", "category": "Gastropub", "price": 3, "lat": 40.576388538358295, "long": -74.00141036230195, "radii": 2002, "photos": 0}, {"code": "BK21", "name": "La Diva", "category": "Nightclub", "price": 3, "lat": 40.5797589, "long": -73.973199, "radii": 2002, "photos": 0}, {"code": "BK21", "name": "PTB Cantina", "category": "Gastropub", "price": 3, "lat": 40.5731166799811, "long": -73.98107491832266, "radii": 2002, "photos": 0}, {"code": "BK21", "name": "Orange Grill Brooklyn", "category": "BBQ Joint", "price": 4, "lat": 40.591168641816445, "long": -73.99205317040891, "radii": 2002, "photos": 0}, {"code": "BK23", "name": "\u039b\u039b\u039b \u03b2\u03b1\u03c1", "category": "Pub", "price": 1, "lat": 40.580833654332785, "long": -73.97428784381152, "radii": 579, "photos": 0}, {"code": "BK23", "name": "Oceanview Bites", "category": "Restaurant", "price": 2, "lat": 40.573923, "long": -73.973835, "radii": 579, "photos": 0}, {"code": "BK23", "name": "La Diva", "category": "Nightclub", "price": 3, "lat": 40.5797589, "long": -73.973199, "radii": 579, "photos": 0}, {"code": "BK25", "name": "Nirvana Lounge", "category": "Dive Bar", "price": 1, "lat": 40.59990283788091, "long": -73.96139828574447, "radii": 681, "photos": 0}, {"code": "BK25", "name": "Heaven", "category": "Bar", "price": 2, "lat": 40.60047403870941, "long": -73.9612991299004, "radii": 681, "photos": 0}, {"code": "BK25", "name": "Overtime", "category": "Bar", "price": 2, "lat": 40.59807255658784, "long": -73.96191902654755, "radii": 681, "photos": 0}, {"code": "BK25", "name": "Karaoke All Night", "category": "Karaoke Bar", "price": 2, "lat": 40.596880827706045, "long": -73.96295792294266, "radii": 681, "photos": 0}, {"code": "BK25", "name": "Arena Sports Bar & Lounge", "category": "Bar", "price": 2, "lat": 40.59512606747287, "long": -73.96112119623557, "radii": 681, "photos": 0}, {"code": "BK25", "name": "Red Lounge", "category": "Lounge", "price": 3, "lat": 40.59859171644498, "long": -73.96135506396642, "radii": 681, "photos": 0}, {"code": "BK25", "name": "Lay Lo Lounge", "category": "Nightclub", "price": 3, "lat": 40.600171, "long": -73.961427, "radii": 681, "photos": 0}, {"code": "BK26", "name": "Esplanade Inn", "category": "Pub", "price": 1, "lat": 40.586437, "long": -73.985987, "radii": 1326, "photos": 0}, {"code": "BK26", "name": "Deke's", "category": "Pub", "price": 1, "lat": 40.593143463134766, "long": -73.97955322265625, "radii": 1326, "photos": 0}, {"code": "BK26", "name": "Passion Cafe", "category": "Hookah Bar", "price": 1, "lat": 40.59657, "long": -73.978234, "radii": 1326, "photos": 0}, {"code": "BK26", "name": "\u039b\u039b\u039b \u03b2\u03b1\u03c1", "category": "Pub", "price": 1, "lat": 40.580833654332785, "long": -73.97428784381152, "radii": 1326, "photos": 0}, {"code": "BK26", "name": "Draft Barn - Avenue X", "category": "Bar", "price": 2, "lat": 40.590614714312956, "long": -73.97140252366277, "radii": 1326, "photos": 0}, {"code": "BK26", "name": "Blue Velvet Lounge", "category": "Bar", "price": 2, "lat": 40.59716172710791, "long": -73.97159910456925, "radii": 1326, "photos": 0}, {"code": "BK26", "name": "Marlboro Post", "category": "Bar", "price": 2, "lat": 40.587318716374654, "long": -73.97372538119433, "radii": 1326, "photos": 0}, {"code": "BK26", "name": "Joe's Bar and Grill", "category": "Bar", "price": 2, "lat": 40.596860310221615, "long": -73.97462963497252, "radii": 1326, "photos": 0}, {"code": "BK26", "name": "Living Room Cafe", "category": "Lounge", "price": 3, "lat": 40.59643872110103, "long": -73.97758308781751, "radii": 1326, "photos": 0}, {"code": "BK26", "name": "Lounge Bar Cave", "category": "Lounge", "price": 3, "lat": 40.59574582387017, "long": -73.97347166058043, "radii": 1326, "photos": 0}, {"code": "BK26", "name": "The 2FL VIP Lounge", "category": "Lounge", "price": 3, "lat": 40.59713698167051, "long": -73.97354944572112, "radii": 1326, "photos": 0}, {"code": "BK26", "name": "La Diva", "category": "Nightclub", "price": 3, "lat": 40.5797589, "long": -73.973199, "radii": 1326, "photos": 0}, {"code": "BK26", "name": "Orange Grill Brooklyn", "category": "BBQ Joint", "price": 4, "lat": 40.591168641816445, "long": -73.99205317040891, "radii": 1326, "photos": 0}, {"code": "BK27", "name": "Lutzina Bar&Lounge", "category": "Hookah Bar", "price": 1, "lat": 40.600806772347404, "long": -74.00057826419268, "radii": 910, "photos": 0}, {"code": "BK27", "name": "Hookah Lounge", "category": "Hookah Bar", "price": 1, "lat": 40.60377092414029, "long": -74.01044227600494, "radii": 910, "photos": 0}, {"code": "BK27", "name": "Porto Marina", "category": "Hookah Bar", "price": 1, "lat": 40.60377718661189, "long": -74.01044753021239, "radii": 910, "photos": 0}, {"code": "BK27", "name": "TequilaVille Mexican Bar & Grill", "category": "Sports Bar", "price": 1, "lat": 40.599657451956055, "long": -73.99899439849084, "radii": 910, "photos": 0}, {"code": "BK27", "name": "My Father's Place", "category": "Bar", "price": 2, "lat": 40.60181020274889, "long": -74.00537569050172, "radii": 910, "photos": 0}, {"code": "BK27", "name": "Tanjia", "category": "Lounge", "price": 3, "lat": 40.60428214603558, "long": -74.00684547047463, "radii": 910, "photos": 0}, {"code": "BK27", "name": "Z Vape", "category": "Lounge", "price": 3, "lat": 40.60553874949884, "long": -74.00016188621521, "radii": 910, "photos": 0}, {"code": "BK27", "name": "Lailas Lounge", "category": "Lounge", "price": 3, "lat": 40.60008185527934, "long": -73.99933297957848, "radii": 910, "photos": 0}, {"code": "BK28", "name": "Navruz Caf\u00e9", "category": "Coffee Shop", "price": 1, "lat": 40.618477, "long": -73.983811, "radii": 1201, "photos": 0}, {"code": "BK28", "name": "Lounge 18", "category": "Bar", "price": 2, "lat": 40.614332723573455, "long": -73.995194976322, "radii": 1201, "photos": 0}, {"code": "BK28", "name": "Wine Bar", "category": "Wine Bar", "price": 2, "lat": 40.607746122514186, "long": -73.99515151977539, "radii": 1201, "photos": 0}, {"code": "BK28", "name": "Soho", "category": "Lounge", "price": 3, "lat": 40.61048528712168, "long": -73.9826442375296, "radii": 1201, "photos": 0}, {"code": "BK28", "name": "B66 club", "category": "Lounge", "price": 3, "lat": 40.622585496059166, "long": -73.99815904625616, "radii": 1201, "photos": 0}, {"code": "BK29", "name": "Homestretch Pub", "category": "Sports Bar", "price": 1, "lat": 40.60544842352407, "long": -73.982786244806, "radii": 1105, "photos": 0}, {"code": "BK29", "name": "Passion Cafe", "category": "Hookah Bar", "price": 1, "lat": 40.59657, "long": -73.978234, "radii": 1105, "photos": 0}, {"code": "BK29", "name": "Deke's", "category": "Pub", "price": 1, "lat": 40.593143463134766, "long": -73.97955322265625, "radii": 1105, "photos": 0}, {"code": "BK29", "name": "The Living Room", "category": "Steakhouse", "price": 2, "lat": 40.59910659448043, "long": -73.98933439183882, "radii": 1105, "photos": 0}, {"code": "BK29", "name": "Homestretch Bar & Grill", "category": "Bar", "price": 2, "lat": 40.60199025429824, "long": -73.97688873374345, "radii": 1105, "photos": 0}, {"code": "BK29", "name": "Joe's Bar and Grill", "category": "Bar", "price": 2, "lat": 40.596860310221615, "long": -73.97462963497252, "radii": 1105, "photos": 0}, {"code": "BK29", "name": "Flow Cafe Bar & Karaoke", "category": "Karaoke Bar", "price": 2, "lat": 40.60010409339734, "long": -73.99114732723437, "radii": 1105, "photos": 0}, {"code": "BK29", "name": "Flow cafe", "category": "Bar", "price": 2, "lat": 40.600113, "long": -73.99123, "radii": 1105, "photos": 0}, {"code": "BK29", "name": "karoke madeness", "category": "Karaoke Bar", "price": 2, "lat": 40.61059686538772, "long": -73.9798092842102, "radii": 1105, "photos": 0}, {"code": "BK29", "name": "Living Room Cafe", "category": "Lounge", "price": 3, "lat": 40.59643872110103, "long": -73.97758308781751, "radii": 1105, "photos": 0}, {"code": "BK29", "name": "La Boheme Lounge", "category": "Lounge", "price": 3, "lat": 40.602723115547796, "long": -73.98665032729582, "radii": 1105, "photos": 0}, {"code": "BK29", "name": "Lounge Bar Cave", "category": "Lounge", "price": 3, "lat": 40.59574582387017, "long": -73.97347166058043, "radii": 1105, "photos": 0}, {"code": "BK29", "name": "Living Room Lounge", "category": "Lounge", "price": 3, "lat": 40.601173, "long": -73.978694, "radii": 1105, "photos": 0}, {"code": "BK29", "name": "The 2FL VIP Lounge", "category": "Lounge", "price": 3, "lat": 40.59713698167051, "long": -73.97354944572112, "radii": 1105, "photos": 0}, {"code": "BK29", "name": "Illuzion", "category": "Lounge", "price": 3, "lat": 40.60517310421041, "long": -73.97198058874058, "radii": 1105, "photos": 0}, {"code": "BK30", "name": "The Hideout", "category": "Bar", "price": 1, "lat": 40.622400284134045, "long": -74.02550214075792, "radii": 1153, "photos": 0}, {"code": "BK30", "name": "Chuan Yue", "category": "Chinese Restaurant", "price": 1, "lat": 40.632389, "long": -74.010954, "radii": 1153, "photos": 0}, {"code": "BK30", "name": "Sababa Lounge", "category": "Hookah Bar", "price": 1, "lat": 40.612335, "long": -74.011425, "radii": 1153, "photos": 0}, {"code": "BK30", "name": "Bean Post Pub", "category": "Bar", "price": 2, "lat": 40.62868879016591, "long": -74.02294012020647, "radii": 1153, "photos": 0}, {"code": "BK30", "name": "Skinflints Restaurant", "category": "Pub", "price": 2, "lat": 40.62654807481846, "long": -74.02394919381575, "radii": 1153, "photos": 0}, {"code": "BK30", "name": "Indigo Murphy's", "category": "Bar", "price": 2, "lat": 40.62766698541599, "long": -74.01376113036004, "radii": 1153, "photos": 0}, {"code": "BK30", "name": "Mussels & More", "category": "Bar", "price": 2, "lat": 40.62556087115418, "long": -74.0238415700146, "radii": 1153, "photos": 0}, {"code": "BK30", "name": "Vaccaro Ristorante", "category": "Italian Restaurant", "price": 2, "lat": 40.62942830511684, "long": -74.01127904438157, "radii": 1153, "photos": 0}, {"code": "BK30", "name": "No Quarter", "category": "Bar", "price": 2, "lat": 40.62535426841378, "long": -74.02429826531997, "radii": 1153, "photos": 0}, {"code": "BK30", "name": "Purple Rose", "category": "Bar", "price": 2, "lat": 40.62823628060677, "long": -74.01704371392604, "radii": 1153, "photos": 0}, {"code": "BK30", "name": "Ocean XI", "category": "Bar", "price": 2, "lat": 40.629057727497454, "long": -74.00535674987917, "radii": 1153, "photos": 0}, {"code": "BK30", "name": "V Lounge Karaoke", "category": "Karaoke Bar", "price": 2, "lat": 40.63214379605423, "long": -74.014918538456, "radii": 1153, "photos": 0}, {"code": "BK30", "name": "Ocean Extreme", "category": "Lounge", "price": 3, "lat": 40.629072910542135, "long": -74.00533158873435, "radii": 1153, "photos": 0}, {"code": "BK30", "name": "Hard Rockin' Cafe", "category": "Nightclub", "price": 3, "lat": 40.630562613637814, "long": -74.0154368875516, "radii": 1153, "photos": 0}, {"code": "BK30", "name": "Tea Lounge, Union Street", "category": "Lounge", "price": 3, "lat": 40.6202842857068, "long": -74.02428877246702, "radii": 1153, "photos": 0}, {"code": "BK31", "name": "Lamoza Hookah Lounge", "category": "Hookah Bar", "price": 1, "lat": 40.62986503444392, "long": -74.02849452703252, "radii": 1082, "photos": 0}, {"code": "BK31", "name": "The Hideout", "category": "Bar", "price": 1, "lat": 40.622400284134045, "long": -74.02550214075792, "radii": 1082, "photos": 0}, {"code": "BK31", "name": "LoneStar Bar & Grill", "category": "Bar", "price": 1, "lat": 40.62076079897916, "long": -74.02679316546447, "radii": 1082, "photos": 0}, {"code": "BK31", "name": "Salty Dog Bar and Restaurant", "category": "Bar", "price": 1, "lat": 40.6311430756133, "long": -74.02775836987216, "radii": 1082, "photos": 0}, {"code": "BK31", "name": "Tarboosh", "category": "Hookah Bar", "price": 1, "lat": 40.63115532021807, "long": -74.02201654732978, "radii": 1082, "photos": 0}, {"code": "BK31", "name": "Kelly's Tavern", "category": "Pub", "price": 1, "lat": 40.61682672452675, "long": -74.03041655237989, "radii": 1082, "photos": 0}, {"code": "BK31", "name": "Red White & Brew", "category": "Sports Bar", "price": 1, "lat": 40.61948734850786, "long": -74.02797243256487, "radii": 1082, "photos": 0}, {"code": "BK31", "name": "Blow Hookah Lounge & Cafe", "category": "Hookah Bar", "price": 1, "lat": 40.63063841152184, "long": -74.02224572298, "radii": 1082, "photos": 0}, {"code": "BK31", "name": "Double Apple Hookah Lounge", "category": "Hookah Bar", "price": 1, "lat": 40.61872616174905, "long": -74.02999216776232, "radii": 1082, "photos": 0}, {"code": "BK31", "name": "Hookah Tea Room", "category": "Hookah Bar", "price": 1, "lat": 40.61865133206977, "long": -74.02995477351591, "radii": 1082, "photos": 0}, {"code": "BK31", "name": "La Catrina", "category": "Mexican Restaurant", "price": 1, "lat": 40.632432, "long": -74.027522, "radii": 1082, "photos": 0}, {"code": "BK31", "name": "Johnny Pumps", "category": "Dive Bar", "price": 1, "lat": 40.62901652198109, "long": -74.02292766407088, "radii": 1082, "photos": 0}, {"code": "BK31", "name": "The Kettle Black", "category": "Bar", "price": 2, "lat": 40.62283909856897, "long": -74.03141082168587, "radii": 1082, "photos": 0}, {"code": "BK31", "name": "Windy City Ale House", "category": "Sports Bar", "price": 2, "lat": 40.62811715828623, "long": -74.0291280171792, "radii": 1082, "photos": 0}, {"code": "BK31", "name": "Bean Post Pub", "category": "Bar", "price": 2, "lat": 40.62868879016591, "long": -74.02294012020647, "radii": 1082, "photos": 0}, {"code": "BK31", "name": "RED OAK Restaurant & Bar & Hookah Lounge", "category": "Hookah Bar", "price": 2, "lat": 40.625446614320815, "long": -74.03024585189742, "radii": 1082, "photos": 0}, {"code": "BK31", "name": "The Owl's Head", "category": "Wine Bar", "price": 2, "lat": 40.63045435397458, "long": -74.02262332087135, "radii": 1082, "photos": 0}, {"code": "BK31", "name": "The Lockyard", "category": "Beer Garden", "price": 2, "lat": 40.61736777473677, "long": -74.02964943412427, "radii": 1082, "photos": 0}, {"code": "BK31", "name": "Skinflints Restaurant", "category": "Pub", "price": 2, "lat": 40.62654807481846, "long": -74.02394919381575, "radii": 1082, "photos": 0}, {"code": "BK31", "name": "The Wicked Monk", "category": "Bar", "price": 2, "lat": 40.617128601968595, "long": -74.03384858127117, "radii": 1082, "photos": 0}, {"code": "BK31", "name": "Mussels & More", "category": "Bar", "price": 2, "lat": 40.62556087115418, "long": -74.0238415700146, "radii": 1082, "photos": 0}, {"code": "BK31", "name": "Harp Bar Brooklyn", "category": "Bar", "price": 2, "lat": 40.62978871192184, "long": -74.02853333491446, "radii": 1082, "photos": 0}, {"code": "BK31", "name": "Delia's Lounge & Restaurant", "category": "Cocktail Bar", "price": 2, "lat": 40.6187462397852, "long": -74.0331474738176, "radii": 1082, "photos": 0}, {"code": "BK31", "name": "Blue Agave", "category": "Mexican Restaurant", "price": 2, "lat": 40.633103082062476, "long": -74.02705520689342, "radii": 1082, "photos": 0}, {"code": "BK31", "name": "Schnitzel Haus", "category": "German Restaurant", "price": 2, "lat": 40.6304137774366, "long": -74.02225370131654, "radii": 1082, "photos": 0}, {"code": "BK31", "name": "The Pour House of Bay Ridge", "category": "Bar", "price": 2, "lat": 40.62851661943293, "long": -74.0289634772342, "radii": 1082, "photos": 0}, {"code": "BK31", "name": "O'Sullivans", "category": "Bar", "price": 2, "lat": 40.62133317731209, "long": -74.03194980836896, "radii": 1082, "photos": 0}, {"code": "BK31", "name": "No Quarter", "category": "Bar", "price": 2, "lat": 40.62535426841378, "long": -74.02429826531997, "radii": 1082, "photos": 0}, {"code": "BK31", "name": "3rd Ave Feast - Bay Ridge, Brooklyn", "category": "Karaoke Bar", "price": 2, "lat": 40.62441142229029, "long": -74.0306015143545, "radii": 1082, "photos": 0}, {"code": "BK31", "name": "J.J. Bubbles", "category": "Bar", "price": 2, "lat": 40.62825931495325, "long": -74.02913574890776, "radii": 1082, "photos": 0}, {"code": "BK31", "name": "Catch 22", "category": "Bar", "price": 2, "lat": 40.63283127533761, "long": -74.02718639402448, "radii": 1082, "photos": 0}, {"code": "BK31", "name": "The Empty Mug", "category": "Bar", "price": 2, "lat": 40.61937263832131, "long": -74.02808837730524, "radii": 1082, "photos": 0}, {"code": "BK31", "name": "PC's Bar and Grill", "category": "Bar", "price": 2, "lat": 40.63120012091919, "long": -74.02194868743922, "radii": 1082, "photos": 0}, {"code": "BK31", "name": "Cebu' Bar & Bistro", "category": "New American Restaurant", "price": 3, "lat": 40.62181234249646, "long": -74.03172698590136, "radii": 1082, "photos": 0}, {"code": "BK31", "name": "Blue Zoo Lounge", "category": "Lounge", "price": 3, "lat": 40.62502995433233, "long": -74.03055409884608, "radii": 1082, "photos": 0}, {"code": "BK31", "name": "Tanoreen", "category": "Lebanese Restaurant", "price": 3, "lat": 40.63072604075072, "long": -74.02795355574881, "radii": 1082, "photos": 0}, {"code": "BK31", "name": "Townhouse 275", "category": "Cocktail Bar", "price": 3, "lat": 40.61803762118631, "long": -74.03361264495949, "radii": 1082, "photos": 0}, {"code": "BK31", "name": "Fushimi", "category": "Japanese Restaurant", "price": 3, "lat": 40.61727, "long": -74.03101, "radii": 1082, "photos": 0}, {"code": "BK31", "name": "MATTER", "category": "Cocktail Bar", "price": 3, "lat": 40.63068961509084, "long": -74.02825000155805, "radii": 1082, "photos": 0}, {"code": "BK31", "name": "Gallery Social Bar and Lounge", "category": "Cocktail Bar", "price": 3, "lat": 40.628084532041036, "long": -74.02916818603931, "radii": 1082, "photos": 0}, {"code": "BK31", "name": "93 Lounge", "category": "Lounge", "price": 3, "lat": 40.6187135455097, "long": -74.03255211139303, "radii": 1082, "photos": 0}, {"code": "BK32", "name": "The Landing @ Industry City", "category": "Caf\u00e9", "price": 1, "lat": 40.65665914720436, "long": -74.008696154606, "radii": 1730, "photos": 0}, {"code": "BK32", "name": "bar 718", "category": "Bar", "price": 1, "lat": 40.660488798194294, "long": -73.99443024109526, "radii": 1730, "photos": 0}, {"code": "BK32", "name": "Green City", "category": "Beer Garden", "price": 1, "lat": 40.656724, "long": -74.008635, "radii": 1730, "photos": 0}, {"code": "BK32", "name": "Minnie\u2019s Bar", "category": "Dive Bar", "price": 1, "lat": 40.655819, "long": -74.002666, "radii": 1730, "photos": 0}, {"code": "BK32", "name": "Vfw Post 7096 Veterans Of Foreign Wars Edward F. Lukoski", "category": "Pub", "price": 1, "lat": 40.660293, "long": -74.00188, "radii": 1730, "photos": 0}, {"code": "BK32", "name": "Grumpy Cat Bar", "category": "Dive Bar", "price": 1, "lat": 40.638576, "long": -74.017414, "radii": 1730, "photos": 0}, {"code": "BK32", "name": "Five Boroughs Brewing Co.", "category": "Brewery", "price": 2, "lat": 40.650610751461315, "long": -74.01462060063614, "radii": 1730, "photos": 0}, {"code": "BK32", "name": "Brooklyn Kura", "category": "Brewery", "price": 2, "lat": 40.657089418661535, "long": -74.0067178413386, "radii": 1730, "photos": 0}, {"code": "BK32", "name": "Big Alice Barrel Room", "category": "Brewery", "price": 2, "lat": 40.6574153788505, "long": -74.00696695747743, "radii": 1730, "photos": 0}, {"code": "BK32", "name": "Mama Tried", "category": "Bar", "price": 2, "lat": 40.660486, "long": -74.00088, "radii": 1730, "photos": 0}, {"code": "BK32", "name": "Japan Village", "category": "Japanese Restaurant", "price": 2, "lat": 40.65590374239456, "long": -74.00611007055633, "radii": 1730, "photos": 0}, {"code": "BK32", "name": "On the Rocks", "category": "Wine Bar", "price": 2, "lat": 40.656257202067394, "long": -74.00248437321538, "radii": 1730, "photos": 0}, {"code": "BK32", "name": "Club Xstasy", "category": "Gay Bar", "price": 2, "lat": 40.6585535511816, "long": -73.99646695686708, "radii": 1730, "photos": 0}, {"code": "BK32", "name": "The Tasting Room @ Industry City Distillery", "category": "Bar", "price": 2, "lat": 40.65747013621518, "long": -74.00773252260345, "radii": 1730, "photos": 0}, {"code": "BK32", "name": "Irish Haven", "category": "Bar", "price": 2, "lat": 40.64195566250535, "long": -74.01719824649268, "radii": 1730, "photos": 0}, {"code": "BK32", "name": "The Spot Bar & Lounge", "category": "Bar", "price": 2, "lat": 40.65143370124775, "long": -74.00417092648348, "radii": 1730, "photos": 0}, {"code": "BK32", "name": "Helm Bar", "category": "Bar", "price": 2, "lat": 40.657052, "long": -74.007155, "radii": 1730, "photos": 0}, {"code": "BK32", "name": "Lineup Brewing", "category": "Brewery", "price": 2, "lat": 40.657213, "long": -74.007352, "radii": 1730, "photos": 0}, {"code": "BK32", "name": "Wartega", "category": "Brewery", "price": 2, "lat": 40.657213, "long": -74.007352, "radii": 1730, "photos": 0}, {"code": "BK32", "name": "King's Lounge", "category": "Karaoke Bar", "price": 2, "lat": 40.646814040256146, "long": -73.99673335012453, "radii": 1730, "photos": 0}, {"code": "BK32", "name": "Feeney's Pub", "category": "Bar", "price": 2, "lat": 40.638271644337344, "long": -74.01738563227146, "radii": 1730, "photos": 0}, {"code": "BK32", "name": "L\u2019Wren", "category": "Cocktail Bar", "price": 3, "lat": 40.650624, "long": -74.004815, "radii": 1730, "photos": 0}, {"code": "BK32", "name": "Frying Pan Brooklyn", "category": "Gastropub", "price": 3, "lat": 40.657028828131295, "long": -74.0071091000663, "radii": 1730, "photos": 0}, {"code": "BK32", "name": "Jaguars 3", "category": "Nightclub", "price": 3, "lat": 40.65029835157817, "long": -74.01419548488389, "radii": 1730, "photos": 0}, {"code": "BK32", "name": "Concierge Lounge - New York Marriott at the Brooklyn Bridge", "category": "Hotel Bar", "price": 3, "lat": 40.649886617650395, "long": -74.00307255906036, "radii": 1730, "photos": 0}, {"code": "BK32", "name": "Lutheran Medical Center A Side", "category": "Nightclub", "price": 3, "lat": 40.646164377426004, "long": -74.02019724351072, "radii": 1730, "photos": 0}, {"code": "BK32", "name": "socialite club", "category": "Lounge", "price": 3, "lat": 40.64285716316666, "long": -74.02335004838042, "radii": 1730, "photos": 0}, {"code": "BK33", "name": "Brooklyn Ice House", "category": "Dive Bar", "price": 1, "lat": 40.67907998485091, "long": -74.01090321157281, "radii": 1251, "photos": 0}, {"code": "BK33", "name": "Other Half Brewing Company", "category": "Brewery", "price": 1, "lat": 40.673789976521334, "long": -73.99913388740788, "radii": 1251, "photos": 0}, {"code": "BK33", "name": "Abilene", "category": "Lounge", "price": 1, "lat": 40.67885737510263, "long": -73.9976157385781, "radii": 1251, "photos": 0}, {"code": "BK33", "name": "Gowanus Yacht Club", "category": "Beer Garden", "price": 1, "lat": 40.680927562562744, "long": -73.99443935393407, "radii": 1251, "photos": 0}, {"code": "BK33", "name": "B61", "category": "Dive Bar", "price": 1, "lat": 40.685682195969804, "long": -74.00233476645471, "radii": 1251, "photos": 0}, {"code": "BK33", "name": "Sunny's", "category": "Bar", "price": 1, "lat": 40.67563606268985, "long": -74.01680340973766, "radii": 1251, "photos": 0}, {"code": "BK33", "name": "Rocky Sullivan's", "category": "Pub", "price": 1, "lat": 40.67317, "long": -74.012255, "radii": 1251, "photos": 0}, {"code": "BK33", "name": "Zombie Hut", "category": "Tiki Bar", "price": 1, "lat": 40.682593123240906, "long": -73.99319944391982, "radii": 1251, "photos": 0}, {"code": "BK33", "name": "Angry Wade's", "category": "Sports Bar", "price": 1, "lat": 40.68407750278486, "long": -73.99230705709725, "radii": 1251, "photos": 0}, {"code": "BK33", "name": "Red Hook Cafe & Grill", "category": "Caf\u00e9", "price": 1, "lat": 40.681291864759125, "long": -74.00810144732247, "radii": 1251, "photos": 0}, {"code": "BK33", "name": "Somewhere", "category": "Coffee Shop", "price": 1, "lat": 40.677253, "long": -74.015424, "radii": 1251, "photos": 0}, {"code": "BK33", "name": "The Bell House Outdoor Patio", "category": "Beer Garden", "price": 1, "lat": 40.6736525, "long": -73.99180424, "radii": 1251, "photos": 0}, {"code": "BK33", "name": "Folksbier", "category": "Brewery", "price": 2, "lat": 40.677990990762666, "long": -74.00154533221303, "radii": 1251, "photos": 0}, {"code": "BK33", "name": "Jalopy Tavern", "category": "Bar", "price": 2, "lat": 40.68135444334983, "long": -74.00461728614081, "radii": 1251, "photos": 0}, {"code": "BK33", "name": "San Pedro Inn", "category": "Bar", "price": 2, "lat": 40.67901532354342, "long": -74.0110603832096, "radii": 1251, "photos": 0}, {"code": "BK33", "name": "FRANKS Wine Bar", "category": "Italian Restaurant", "price": 2, "lat": 40.67718059828416, "long": -73.9983236384829, "radii": 1251, "photos": 0}, {"code": "BK33", "name": "Bar Bruno", "category": "Bar", "price": 2, "lat": 40.68351749855508, "long": -73.9998304896896, "radii": 1251, "photos": 0}, {"code": "BK33", "name": "Brooklyn Social", "category": "Cocktail Bar", "price": 2, "lat": 40.6805555056908, "long": -73.99469005211638, "radii": 1251, "photos": 0}, {"code": "BK33", "name": "Fort Defiance", "category": "American Restaurant", "price": 2, "lat": 40.67679024203255, "long": -74.0135475904526, "radii": 1251, "photos": 0}, {"code": "BK33", "name": "Svendale Brewing Company Tasting Room", "category": "Brewery", "price": 2, "lat": 40.67734611796521, "long": -73.99830690277334, "radii": 1251, "photos": 0}, {"code": "BK33", "name": "Vekslers", "category": "Bar", "price": 2, "lat": 40.68534457902491, "long": -74.00068713289978, "radii": 1251, "photos": 0}, {"code": "BK33", "name": "Phil's Crummy Corner", "category": "Bar", "price": 2, "lat": 40.681034735333924, "long": -74.00444361089129, "radii": 1251, "photos": 0}, {"code": "BK33", "name": "The Hop Shop", "category": "Bar", "price": 2, "lat": 40.687549212081024, "long": -74.0013329507082, "radii": 1251, "photos": 0}, {"code": "BK33", "name": "Alma", "category": "Mexican Restaurant", "price": 2, "lat": 40.68569002042738, "long": -74.0023013251684, "radii": 1251, "photos": 0}, {"code": "BK33", "name": "Barely Disfigured", "category": "Bar", "price": 2, "lat": 40.68309199473837, "long": -73.9928962274326, "radii": 1251, "photos": 0}, {"code": "BK33", "name": "Black Mountain Wine House", "category": "Wine Bar", "price": 2, "lat": 40.68088122945771, "long": -73.9916760049903, "radii": 1251, "photos": 0}, {"code": "BK33", "name": "Other Half Corner Warehouse", "category": "Brewery", "price": 2, "lat": 40.67359, "long": -73.998493, "radii": 1251, "photos": 0}, {"code": "BK33", "name": "Sixpoint Brewery", "category": "Brewery", "price": 2, "lat": 40.673835336909406, "long": -74.01186563540197, "radii": 1251, "photos": 0}, {"code": "BK33", "name": "Bar Great Harry", "category": "Bar", "price": 2, "lat": 40.682337792970536, "long": -73.99352293676533, "radii": 1251, "photos": 0}, {"code": "BK33", "name": "Water Shed", "category": "Bar", "price": 2, "lat": 40.6751440142129, "long": -73.99931077983175, "radii": 1251, "photos": 0}, {"code": "BK33", "name": "June Wine Bar", "category": "Wine Bar", "price": 2, "lat": 40.686138934394656, "long": -73.99404940709272, "radii": 1251, "photos": 0}, {"code": "BK33", "name": "Clover Club", "category": "Cocktail Bar", "price": 2, "lat": 40.6845495098338, "long": -73.99198070888959, "radii": 1251, "photos": 0}, {"code": "BK33", "name": "Claudine's", "category": "Italian Restaurant", "price": 2, "lat": 40.681352187513205, "long": -73.99410672670723, "radii": 1251, "photos": 0}, {"code": "BK33", "name": "Travel Bar", "category": "Bar", "price": 2, "lat": 40.67606465179206, "long": -73.9989999506794, "radii": 1251, "photos": 0}, {"code": "BK33", "name": "The Bell House", "category": "Rock Club", "price": 2, "lat": 40.673703858503, "long": -73.99169824616679, "radii": 1251, "photos": 0}, {"code": "BK33", "name": "Lavender Lake", "category": "Bar", "price": 2, "lat": 40.678592679700195, "long": -73.98981881895646, "radii": 1251, "photos": 0}, {"code": "BK33", "name": "Big Tiny", "category": "Wine Bar", "price": 2, "lat": 40.68343464931776, "long": -73.99270240440293, "radii": 1251, "photos": 0}, {"code": "BK33", "name": "The WingBar", "category": "Wings Joint", "price": 2, "lat": 40.682556312238596, "long": -73.99327716562713, "radii": 1251, "photos": 0}, {"code": "BK33", "name": "Flying Lobster", "category": "Wine Bar", "price": 2, "lat": 40.68393884335446, "long": -74.00156634917785, "radii": 1251, "photos": 0}, {"code": "BK33", "name": "Congress", "category": "Cocktail Bar", "price": 2, "lat": 40.68691293283543, "long": -73.99373473873149, "radii": 1251, "photos": 0}, {"code": "BK33", "name": "Enoteca on Court", "category": "Italian Restaurant", "price": 2, "lat": 40.6822145298343, "long": -73.99594672669618, "radii": 1251, "photos": 0}, {"code": "BK33", "name": "Bar San Miguel", "category": "Cocktail Bar", "price": 2, "lat": 40.681327, "long": -73.993941, "radii": 1251, "photos": 0}, {"code": "BK33", "name": "Minibar", "category": "Bar", "price": 2, "lat": 40.677464, "long": -73.998425, "radii": 1251, "photos": 0}, {"code": "BK33", "name": "Watty & Meg", "category": "American Restaurant", "price": 2, "lat": 40.68556214714406, "long": -73.99442741145906, "radii": 1251, "photos": 0}, {"code": "BK33", "name": "Union Grounds", "category": "Sports Bar", "price": 2, "lat": 40.68260885002129, "long": -73.9932675915339, "radii": 1251, "photos": 0}, {"code": "BK33", "name": "40 Knots", "category": "Bar", "price": 2, "lat": 40.68528332626902, "long": -74.00256789869438, "radii": 1251, "photos": 0}, {"code": "BK33", "name": "Kittery", "category": "Seafood Restaurant", "price": 2, "lat": 40.68164630099958, "long": -73.99392614625381, "radii": 1251, "photos": 0}, {"code": "BK33", "name": "verona wine bar", "category": "Wine Bar", "price": 2, "lat": 40.680026, "long": -74.009815, "radii": 1251, "photos": 0}, {"code": "BK33", "name": "Carriage House", "category": "Bar", "price": 2, "lat": 40.672865548791044, "long": -73.99929280897226, "radii": 1251, "photos": 0}, {"code": "BK33", "name": "PRB", "category": "Bar", "price": 2, "lat": 40.68334746666667, "long": -73.992803, "radii": 1251, "photos": 0}, {"code": "BK33", "name": "Nunez Bar Lounge", "category": "Bar", "price": 2, "lat": 40.68359339214626, "long": -73.99270471561262, "radii": 1251, "photos": 0}, {"code": "BK33", "name": "Frankies 457 Spuntino", "category": "Italian Restaurant", "price": 3, "lat": 40.67735978455962, "long": -73.99804694982672, "radii": 1251, "photos": 0}, {"code": "BK33", "name": "Buttermilk Channel", "category": "American Restaurant", "price": 3, "lat": 40.67592444896118, "long": -73.99906984462297, "radii": 1251, "photos": 0}, {"code": "BK33", "name": "Seaborne", "category": "Lounge", "price": 3, "lat": 40.68100958449892, "long": -74.00859006487772, "radii": 1251, "photos": 0}, {"code": "BK33", "name": "The CopperPot", "category": "New American Restaurant", "price": 3, "lat": 40.677269030088446, "long": -74.01257971232485, "radii": 1251, "photos": 0}, {"code": "BK33", "name": "Leyenda", "category": "Cocktail Bar", "price": 3, "lat": 40.68434364554136, "long": -73.99205460336245, "radii": 1251, "photos": 0}, {"code": "BK33", "name": "Brooklyn Crab", "category": "Seafood Restaurant", "price": 3, "lat": 40.67531922990671, "long": -74.01653986690938, "radii": 1251, "photos": 0}, {"code": "BK33", "name": "Analog BKNY", "category": "Nightclub", "price": 3, "lat": 40.66966792713886, "long": -73.99584025510393, "radii": 1251, "photos": 0}, {"code": "BK33", "name": "Lillie's", "category": "Lounge", "price": 3, "lat": 40.67338822087143, "long": -74.01241421699524, "radii": 1251, "photos": 0}, {"code": "BK33", "name": "Rubulad", "category": "Nightclub", "price": 3, "lat": 40.671365, "long": -73.993515, "radii": 1251, "photos": 0}, {"code": "BK33", "name": "One77", "category": "Lounge", "price": 3, "lat": 40.66960433986056, "long": -73.99558067321777, "radii": 1251, "photos": 0}, {"code": "BK34", "name": "Soccer Tavern", "category": "Dive Bar", "price": 1, "lat": 40.63540857188418, "long": -74.0097409607691, "radii": 1060, "photos": 0}, {"code": "BK34", "name": "Irish Haven", "category": "Bar", "price": 2, "lat": 40.64195566250535, "long": -74.01719824649268, "radii": 1060, "photos": 0}, {"code": "BK34", "name": "100 Fun", "category": "Karaoke Bar", "price": 2, "lat": 40.63359278999765, "long": -74.00656584677445, "radii": 1060, "photos": 0}, {"code": "BK34", "name": "King's Lounge", "category": "Karaoke Bar", "price": 2, "lat": 40.646814040256146, "long": -73.99673335012453, "radii": 1060, "photos": 0}, {"code": "BK34", "name": "Night Degree Suite Lounge", "category": "Karaoke Bar", "price": 2, "lat": 40.63654760110209, "long": -74.01196124011123, "radii": 1060, "photos": 0}, {"code": "BK34", "name": "DC KTV", "category": "Karaoke Bar", "price": 2, "lat": 40.63601558782607, "long": -74.0116536811549, "radii": 1060, "photos": 0}, {"code": "BK34", "name": "TheLegend KTV", "category": "Karaoke Bar", "price": 2, "lat": 40.6329395, "long": -74.0066915, "radii": 1060, "photos": 0}, {"code": "BK34", "name": "L\u2019Wren", "category": "Cocktail Bar", "price": 3, "lat": 40.650624, "long": -74.004815, "radii": 1060, "photos": 0}, {"code": "BK34", "name": "Concierge Lounge - New York Marriott at the Brooklyn Bridge", "category": "Hotel Bar", "price": 3, "lat": 40.649886617650395, "long": -74.00307255906036, "radii": 1060, "photos": 0}, {"code": "BK34", "name": "The Shed", "category": "Speakeasy", "price": 3, "lat": 40.648229, "long": -74.011453, "radii": 1060, "photos": 0}, {"code": "BK35", "name": "The Wilky", "category": "Beer Bar", "price": 1, "lat": 40.68815119653466, "long": -73.92714834155811, "radii": 1050, "photos": 0}, {"code": "BK35", "name": "Santa Panza", "category": "Pizza Place", "price": 1, "lat": 40.694715437736804, "long": -73.93069170718752, "radii": 1050, "photos": 0}, {"code": "BK35", "name": "The Buren Cafe + Bar", "category": "Coffee Shop", "price": 1, "lat": 40.691949, "long": -73.926169, "radii": 1050, "photos": 0}, {"code": "BK35", "name": "Lone Wolf", "category": "Dive Bar", "price": 1, "lat": 40.694380192245404, "long": -73.93052609813012, "radii": 1050, "photos": 0}, {"code": "BK35", "name": "Flowers for All Occasions", "category": "Caf\u00e9", "price": 1, "lat": 40.6940277434062, "long": -73.92977026210721, "radii": 1050, "photos": 0}, {"code": "BK35", "name": "Happyfun Hideaway", "category": "Bar", "price": 1, "lat": 40.697397035970454, "long": -73.93157412508495, "radii": 1050, "photos": 0}, {"code": "BK35", "name": "Terry's Cafe & Grill", "category": "Diner", "price": 1, "lat": 40.69572657117028, "long": -73.92974543425365, "radii": 1050, "photos": 0}, {"code": "BK35", "name": "Leaf", "category": "Salad Place", "price": 1, "lat": 40.697073, "long": -73.934563, "radii": 1050, "photos": 0}, {"code": "BK35", "name": "Turtles all the way down", "category": "Bar", "price": 2, "lat": 40.6850348890954, "long": -73.92957068199786, "radii": 1050, "photos": 0}, {"code": "BK35", "name": "Bar Lunatico", "category": "Bar", "price": 2, "lat": 40.68354901251034, "long": -73.93477286070559, "radii": 1050, "photos": 0}, {"code": "BK35", "name": "Casablanca Cocktail Lounge", "category": "Bar", "price": 2, "lat": 40.68265835222214, "long": -73.92905345395775, "radii": 1050, "photos": 0}, {"code": "BK35", "name": "Marco's", "category": "Bar", "price": 2, "lat": 40.69475464376717, "long": -73.93096254878536, "radii": 1050, "photos": 0}, {"code": "BK35", "name": "Birdy's", "category": "Bar", "price": 2, "lat": 40.697519323983464, "long": -73.93144207445206, "radii": 1050, "photos": 0}, {"code": "BK35", "name": "Wonderville", "category": "Bar", "price": 2, "lat": 40.692394, "long": -73.9275, "radii": 1050, "photos": 0}, {"code": "BK35", "name": "The Bar at Saraghina", "category": "Bar", "price": 2, "lat": 40.68384744749617, "long": -73.93524029103985, "radii": 1050, "photos": 0}, {"code": "BK35", "name": "Old Timers", "category": "Bar", "price": 2, "lat": 40.697095837183134, "long": -73.9346855556077, "radii": 1050, "photos": 0}, {"code": "BK35", "name": "Gallery Bar", "category": "Whisky Bar", "price": 2, "lat": 40.694786418476376, "long": -73.9318779245478, "radii": 1050, "photos": 0}, {"code": "BK35", "name": "The Bar at Peaches", "category": "Bar", "price": 2, "lat": 40.6817119165501, "long": -73.93469578741407, "radii": 1050, "photos": 0}, {"code": "BK35", "name": "The Looking Glass", "category": "Bar", "price": 2, "lat": 40.69442812158007, "long": -73.93060625257002, "radii": 1050, "photos": 0}, {"code": "BK35", "name": "Bed-Vyne Cocktail", "category": "Cocktail Bar", "price": 3, "lat": 40.682874463261875, "long": -73.94064843780026, "radii": 1050, "photos": 0}, {"code": "BK35", "name": "Sunrise/Sunset", "category": "Cocktail Bar", "price": 3, "lat": 40.69354358629492, "long": -73.92287527081452, "radii": 1050, "photos": 0}, {"code": "BK35", "name": "Tree House Bk", "category": "Lounge", "price": 3, "lat": 40.68283051527199, "long": -73.93789465447448, "radii": 1050, "photos": 0}, {"code": "BK35", "name": "Brown Sugar Club", "category": "Nightclub", "price": 3, "lat": 40.68219742150348, "long": -73.93788332270073, "radii": 1050, "photos": 0}, {"code": "BK35", "name": "Soul II Soul Bar & Lounge", "category": "Lounge", "price": 3, "lat": 40.69364089400067, "long": -73.9261083314113, "radii": 1050, "photos": 0}, {"code": "BK35", "name": "Bunton\u2019s World Famous", "category": "Cocktail Bar", "price": 3, "lat": 40.696013, "long": -73.933384, "radii": 1050, "photos": 0}, {"code": "BK35", "name": "Kitten Kingdom", "category": "Cocktail Bar", "price": 3, "lat": 40.69156, "long": -73.922254, "radii": 1050, "photos": 0}, {"code": "BK35", "name": "Club Republic", "category": "Nightclub", "price": 3, "lat": 40.696252, "long": -73.933927, "radii": 1050, "photos": 0}, {"code": "BK37", "name": "The Owl Farm", "category": "Bar", "price": 1, "lat": 40.66946600970244, "long": -73.98677071948781, "radii": 1144, "photos": 0}, {"code": "BK37", "name": "High Dive", "category": "Dive Bar", "price": 1, "lat": 40.67498321012053, "long": -73.98145773872996, "radii": 1144, "photos": 0}, {"code": "BK37", "name": "The Commissioner", "category": "Pub", "price": 1, "lat": 40.67490708650785, "long": -73.98142727366147, "radii": 1144, "photos": 0}, {"code": "BK37", "name": "Claro", "category": "Mexican Restaurant", "price": 1, "lat": 40.677414588994445, "long": -73.98617422479938, "radii": 1144, "photos": 0}, {"code": "BK37", "name": "Canal Bar", "category": "Dive Bar", "price": 1, "lat": 40.677874929753095, "long": -73.98579584345578, "radii": 1144, "photos": 0}, {"code": "BK37", "name": "Lucky 13 Saloon", "category": "Bar", "price": 1, "lat": 40.678264372153464, "long": -73.98358433665838, "radii": 1144, "photos": 0}, {"code": "BK37", "name": "American Cheez", "category": "Bar", "price": 1, "lat": 40.6632546133176, "long": -73.984625839059, "radii": 1144, "photos": 0}, {"code": "BK37", "name": "South", "category": "Bar", "price": 1, "lat": 40.6633010126242, "long": -73.99138516894534, "radii": 1144, "photos": 0}, {"code": "BK37", "name": "Paddy\u2019s of Park Slope", "category": "Pub", "price": 1, "lat": 40.666657226754396, "long": -73.9879729203999, "radii": 1144, "photos": 0}, {"code": "BK37", "name": "Lowlands", "category": "Bar", "price": 1, "lat": 40.66854112425836, "long": -73.99341561900587, "radii": 1144, "photos": 0}, {"code": "BK37", "name": "Gemini & Scorpio Loft (G&S Loft)", "category": "Event Space", "price": 1, "lat": 40.68085725412804, "long": -73.98509148819358, "radii": 1144, "photos": 0}, {"code": "BK37", "name": "Smith's Tavern", "category": "Pub", "price": 1, "lat": 40.66940845879789, "long": -73.98615341873025, "radii": 1144, "photos": 0}, {"code": "BK37", "name": "Buttermilk Bar", "category": "Dive Bar", "price": 1, "lat": 40.664909529147195, "long": -73.98983290052321, "radii": 1144, "photos": 0}, {"code": "BK37", "name": "The Bell House Outdoor Patio", "category": "Beer Garden", "price": 1, "lat": 40.6736525, "long": -73.99180424, "radii": 1144, "photos": 0}, {"code": "BK37", "name": "Barb\u00e8s", "category": "Bar", "price": 2, "lat": 40.66795378942797, "long": -73.98391119053746, "radii": 1144, "photos": 0}, {"code": "BK37", "name": "The Gate", "category": "Bar", "price": 2, "lat": 40.672716922999065, "long": -73.98330857874556, "radii": 1144, "photos": 0}, {"code": "BK37", "name": "Ginger's", "category": "Gay Bar", "price": 2, "lat": 40.67135321879483, "long": -73.98442945976198, "radii": 1144, "photos": 0}, {"code": "BK37", "name": "al di l\u00e0", "category": "Italian Restaurant", "price": 2, "lat": 40.675158402943005, "long": -73.98136997852275, "radii": 1144, "photos": 0}, {"code": "BK37", "name": "Terre Pasta Natural Wine", "category": "Wine Bar", "price": 2, "lat": 40.67205830490629, "long": -73.98376920331621, "radii": 1144, "photos": 0}, {"code": "BK37", "name": "The Dram Shop", "category": "Sports Bar", "price": 2, "lat": 40.66870925103116, "long": -73.98509350675076, "radii": 1144, "photos": 0}, {"code": "BK37", "name": "Mission Dolores", "category": "Beer Bar", "price": 2, "lat": 40.67620100998419, "long": -73.98345713327068, "radii": 1144, "photos": 0}, {"code": "BK37", "name": "Strong Rope Brewery", "category": "Brewery", "price": 2, "lat": 40.67690078478305, "long": -73.98404106615658, "radii": 1144, "photos": 0}, {"code": "BK37", "name": "Skylark", "category": "Bar", "price": 2, "lat": 40.667909926463636, "long": -73.9872939078428, "radii": 1144, "photos": 0}, {"code": "BK37", "name": "Commonwealth", "category": "Bar", "price": 2, "lat": 40.6673044107046, "long": -73.98776758155687, "radii": 1144, "photos": 0}, {"code": "BK37", "name": "Brook Vin", "category": "Wine Bar", "price": 2, "lat": 40.66544149906668, "long": -73.98276388642314, "radii": 1144, "photos": 0}, {"code": "BK37", "name": "Dirty Precious", "category": "Cocktail Bar", "price": 2, "lat": 40.67631721298866, "long": -73.98675287099955, "radii": 1144, "photos": 0}, {"code": "BK37", "name": "Blueprint", "category": "Cocktail Bar", "price": 2, "lat": 40.67683673413956, "long": -73.98022457561854, "radii": 1144, "photos": 0}, {"code": "BK37", "name": "Halyards", "category": "Bar", "price": 2, "lat": 40.673213, "long": -73.98975, "radii": 1144, "photos": 0}, {"code": "BK37", "name": "Littleneck", "category": "Seafood Restaurant", "price": 2, "lat": 40.67730909213775, "long": -73.98621868450589, "radii": 1144, "photos": 0}, {"code": "BK37", "name": "The Bell House", "category": "Rock Club", "price": 2, "lat": 40.673703858503, "long": -73.99169824616679, "radii": 1144, "photos": 0}, {"code": "BK37", "name": "Union Hall", "category": "Bar", "price": 2, "lat": 40.67618637022052, "long": -73.98008642273102, "radii": 1144, "photos": 0}, {"code": "BK37", "name": "Lucey's Lounge", "category": "Cocktail Bar", "price": 2, "lat": 40.67074568186629, "long": -73.99153662368684, "radii": 1144, "photos": 0}, {"code": "BK37", "name": "The Monro Pub", "category": "Pub", "price": 2, "lat": 40.667749916506125, "long": -73.98746831816133, "radii": 1144, "photos": 0}, {"code": "BK37", "name": "Logan's Run", "category": "Bar", "price": 2, "lat": 40.67115359962965, "long": -73.98460855073476, "radii": 1144, "photos": 0}, {"code": "BK37", "name": "Givers + Takers", "category": "Bar", "price": 2, "lat": 40.677403343577204, "long": -73.9863001729077, "radii": 1144, "photos": 0}, {"code": "BK37", "name": "Park Slope Ale House", "category": "Pub", "price": 2, "lat": 40.67053110550259, "long": -73.9819367089569, "radii": 1144, "photos": 0}, {"code": "BK37", "name": "Parklife", "category": "Bar", "price": 2, "lat": 40.67885286300443, "long": -73.98315790020095, "radii": 1144, "photos": 0}, {"code": "BK37", "name": "The Royal Palms Shuffleboard Club", "category": "Bar", "price": 2, "lat": 40.678738706349584, "long": -73.98697253923191, "radii": 1144, "photos": 0}, {"code": "BK37", "name": "Sidecar", "category": "American Restaurant", "price": 2, "lat": 40.665320568149035, "long": -73.98956313632414, "radii": 1144, "photos": 0}, {"code": "BK37", "name": "Threes Brewing", "category": "Brewery", "price": 2, "lat": 40.67979901271337, "long": -73.98215935484912, "radii": 1144, "photos": 0}, {"code": "BK37", "name": "Olivier Bistro", "category": "French Restaurant", "price": 2, "lat": 40.6689139570399, "long": -73.98994942520484, "radii": 1144, "photos": 0}, {"code": "BK37", "name": "Prospect", "category": "Bar", "price": 2, "lat": 40.66580422250567, "long": -73.98901995672054, "radii": 1144, "photos": 0}, {"code": "BK37", "name": "Bar Mina", "category": "Bar", "price": 2, "lat": 40.66561687729949, "long": -73.9824504055204, "radii": 1144, "photos": 0}, {"code": "BK37", "name": "Pig Beach", "category": "BBQ Joint", "price": 2, "lat": 40.679431480221716, "long": -73.98880959442909, "radii": 1144, "photos": 0}, {"code": "BK37", "name": "Lavender Lake", "category": "Bar", "price": 2, "lat": 40.678592679700195, "long": -73.98981881895646, "radii": 1144, "photos": 0}, {"code": "BK37", "name": "Loki Brooklyn", "category": "Bar", "price": 2, "lat": 40.67361600407077, "long": -73.9830571305507, "radii": 1144, "photos": 0}, {"code": "BK37", "name": "The V Spot", "category": "Vegetarian / Vegan Restaurant", "price": 2, "lat": 40.67805723856291, "long": -73.97939186012711, "radii": 1144, "photos": 0}, {"code": "BK37", "name": "The Roof", "category": "Bar", "price": 2, "lat": 40.67479556589227, "long": -73.98913632404678, "radii": 1144, "photos": 0}, {"code": "BK37", "name": "Johnny Mack's Bar & Grill", "category": "Burger Joint", "price": 2, "lat": 40.66416077600608, "long": -73.98056747363933, "radii": 1144, "photos": 0}, {"code": "BK37", "name": "The Sackett", "category": "Bar", "price": 2, "lat": 40.67784387310572, "long": -73.98265145304808, "radii": 1144, "photos": 0}, {"code": "BK37", "name": "Brooklyn Colony", "category": "Bar", "price": 2, "lat": 40.67599166513753, "long": -73.9844384663212, "radii": 1144, "photos": 0}, {"code": "BK37", "name": "Parish Cocktail Bar", "category": "Cocktail Bar", "price": 2, "lat": 40.6701016759592, "long": -73.97883298530802, "radii": 1144, "photos": 0}, {"code": "BK37", "name": "Freddy's Bar", "category": "Pub", "price": 2, "lat": 40.663342651107875, "long": -73.99135031354048, "radii": 1144, "photos": 0}, {"code": "BK37", "name": "The Douglass", "category": "Bar", "price": 2, "lat": 40.679319040572246, "long": -73.98182256510229, "radii": 1144, "photos": 0}, {"code": "BK37", "name": "Sotto Voce", "category": "Italian Restaurant", "price": 2, "lat": 40.669912, "long": -73.978905, "radii": 1144, "photos": 0}, {"code": "BK37", "name": "200 Fifth", "category": "Sports Bar", "price": 2, "lat": 40.67672411405745, "long": -73.9803284738548, "radii": 1144, "photos": 0}, {"code": "BK37", "name": "Black Horse Pub", "category": "Bar", "price": 2, "lat": 40.66506312347628, "long": -73.98993841707401, "radii": 1144, "photos": 0}, {"code": "BK37", "name": "Excelsior", "category": "Gay Bar", "price": 2, "lat": 40.66533765810139, "long": -73.98932068077275, "radii": 1144, "photos": 0}, {"code": "BK37", "name": "Brooklyn Bavarian Biergarten", "category": "Brewery", "price": 2, "lat": 40.6636228, "long": -73.9896803, "radii": 1144, "photos": 0}, {"code": "BK37", "name": "Barrel & Fare", "category": "Bar", "price": 2, "lat": 40.668689054806826, "long": -73.99031069821834, "radii": 1144, "photos": 0}, {"code": "BK37", "name": "Salzy", "category": "Bar", "price": 2, "lat": 40.6672117, "long": -73.9882685, "radii": 1144, "photos": 0}, {"code": "BK37", "name": "Insa", "category": "Korean Restaurant", "price": 3, "lat": 40.67945264167234, "long": -73.98261247683357, "radii": 1144, "photos": 0}, {"code": "BK37", "name": "Soigne", "category": "American Restaurant", "price": 3, "lat": 40.66629894812883, "long": -73.98539847401291, "radii": 1144, "photos": 0}, {"code": "BK37", "name": "Bella Gioia", "category": "Italian Restaurant", "price": 3, "lat": 40.67753707871861, "long": -73.98293024084562, "radii": 1144, "photos": 0}, {"code": "BK37", "name": "Analog BKNY", "category": "Nightclub", "price": 3, "lat": 40.66966792713886, "long": -73.99584025510393, "radii": 1144, "photos": 0}, {"code": "BK37", "name": "161 Wine and Tapas", "category": "Tapas Restaurant", "price": 3, "lat": 40.67219301906709, "long": -73.97723780136756, "radii": 1144, "photos": 0}, {"code": "BK37", "name": "Rubulad", "category": "Nightclub", "price": 3, "lat": 40.671365, "long": -73.993515, "radii": 1144, "photos": 0}, {"code": "BK37", "name": "One77", "category": "Lounge", "price": 3, "lat": 40.66960433986056, "long": -73.99558067321777, "radii": 1144, "photos": 0}, {"code": "BK38", "name": "Beer Garden Dazzler Brooklyn Hotel", "category": "Beer Garden", "price": 1, "lat": 40.69667389237561, "long": -73.98427842983828, "radii": 689, "photos": 0}, {"code": "BK38", "name": "My Sweet and Only", "category": "Coffee Shop", "price": 1, "lat": 40.69646617701696, "long": -73.98415687583241, "radii": 689, "photos": 0}, {"code": "BK38", "name": "Circa Brewing Co", "category": "Brewery", "price": 2, "lat": 40.691684974740014, "long": -73.98621812506313, "radii": 689, "photos": 0}, {"code": "BK38", "name": "House of Wax", "category": "Bar", "price": 2, "lat": 40.6911489272643, "long": -73.98390800506097, "radii": 689, "photos": 0}, {"code": "BK38", "name": "Wine Legend", "category": "Wine Bar", "price": 2, "lat": 40.693171172018985, "long": -73.98184207833725, "radii": 689, "photos": 0}, {"code": "BK38", "name": "two8two Bar & Burger", "category": "Burger Joint", "price": 2, "lat": 40.688513, "long": -73.989743, "radii": 689, "photos": 0}, {"code": "BK38", "name": "The Brazen Head", "category": "Bar", "price": 2, "lat": 40.68945105094006, "long": -73.99144298874313, "radii": 689, "photos": 0}, {"code": "BK38", "name": "Amarachi", "category": "African Restaurant", "price": 2, "lat": 40.698068224753136, "long": -73.98545051359558, "radii": 689, "photos": 0}, {"code": "BK38", "name": "Kimoto Rooftop", "category": "Bar", "price": 2, "lat": 40.69154680398731, "long": -73.98447183825604, "radii": 689, "photos": 0}, {"code": "BK38", "name": "O'Keefe's Bar & Grill", "category": "Bar", "price": 2, "lat": 40.69206199124401, "long": -73.99118453406872, "radii": 689, "photos": 0}, {"code": "BK38", "name": "Understudy", "category": "Bar", "price": 2, "lat": 40.690760170057, "long": -73.98334038589229, "radii": 689, "photos": 0}, {"code": "BK38", "name": "Brownstone Bar & Restaurant", "category": "American Restaurant", "price": 2, "lat": 40.69614189047284, "long": -73.98314155843113, "radii": 689, "photos": 0}, {"code": "BK38", "name": "Applebee's Grill + Bar", "category": "American Restaurant", "price": 2, "lat": 40.68996712, "long": -73.98115369, "radii": 689, "photos": 0}, {"code": "BK38", "name": "Kili", "category": "Bar", "price": 2, "lat": 40.6881, "long": -73.98674048333334, "radii": 689, "photos": 0}, {"code": "BK38", "name": "Grand Army", "category": "Seafood Restaurant", "price": 3, "lat": 40.688329391376335, "long": -73.98661169070166, "radii": 689, "photos": 0}, {"code": "BK38", "name": "Livingston Manor", "category": "Cocktail Bar", "price": 3, "lat": 40.689367385255586, "long": -73.98598830953463, "radii": 689, "photos": 0}, {"code": "BK38", "name": "The Archives Restaurant & Bar", "category": "Hotel Bar", "price": 3, "lat": 40.69355710759406, "long": -73.98872214492283, "radii": 689, "photos": 0}, {"code": "BK38", "name": "M Club Lounge", "category": "Lounge", "price": 3, "lat": 40.69353596674606, "long": -73.98870879060344, "radii": 689, "photos": 0}, {"code": "BK38", "name": "Misdemeanor Lounge - NU Hotel", "category": "Lounge", "price": 3, "lat": 40.688922454800974, "long": -73.98899163991514, "radii": 689, "photos": 0}, {"code": "BK40", "name": "The Adirondack", "category": "Bar", "price": 2, "lat": 40.65269747313669, "long": -73.9760573633351, "radii": 678, "photos": 0}, {"code": "BK40", "name": "Le Paddock", "category": "French Restaurant", "price": 2, "lat": 40.652872710523795, "long": -73.97605651846555, "radii": 678, "photos": 0}, {"code": "BK40", "name": "Hamilton's", "category": "American Restaurant", "price": 2, "lat": 40.648706, "long": -73.97738, "radii": 678, "photos": 0}, {"code": "BK40", "name": "Rhythm & Booze", "category": "Sports Bar", "price": 2, "lat": 40.65759121594892, "long": -73.97957961130054, "radii": 678, "photos": 0}, {"code": "BK40", "name": "The 509", "category": "Lounge", "price": 3, "lat": 40.65805521598001, "long": -73.98149454138091, "radii": 678, "photos": 0}, {"code": "BK41", "name": "Hinterlands Bar", "category": "Dive Bar", "price": 1, "lat": 40.64598481600007, "long": -73.97204965353012, "radii": 774, "photos": 0}, {"code": "BK41", "name": "Highbury Pub", "category": "Pub", "price": 1, "lat": 40.639250405973485, "long": -73.96874710045738, "radii": 774, "photos": 0}, {"code": "BK41", "name": "Denny's Steak Pub", "category": "Pub", "price": 1, "lat": 40.639474518598234, "long": -73.97975786364854, "radii": 774, "photos": 0}, {"code": "BK41", "name": "Red Mist", "category": "Hookah Bar", "price": 1, "lat": 40.64345534209932, "long": -73.96993480196153, "radii": 774, "photos": 0}, {"code": "BK41", "name": "Buffalo's Famous @ 773 Bar", "category": "Wings Joint", "price": 1, "lat": 40.63866357896448, "long": -73.96844803103076, "radii": 774, "photos": 0}, {"code": "BK41", "name": "Sycamore Flower Shop + Bar", "category": "Bar", "price": 2, "lat": 40.63967564567376, "long": -73.96715718953989, "radii": 774, "photos": 0}, {"code": "BK41", "name": "Bar Chord", "category": "Bar", "price": 2, "lat": 40.63933477477298, "long": -73.96857184801993, "radii": 774, "photos": 0}, {"code": "BK41", "name": "Lea", "category": "Italian Restaurant", "price": 2, "lat": 40.63950316759858, "long": -73.9680142223149, "radii": 774, "photos": 0}, {"code": "BK41", "name": "773 Lounge", "category": "Bar", "price": 2, "lat": 40.63865518365365, "long": -73.96846926702048, "radii": 774, "photos": 0}, {"code": "BK41", "name": "Metropolitan Hotel", "category": "Hotel Bar", "price": 3, "lat": 40.63946430960379, "long": -73.97971058040375, "radii": 774, "photos": 0}, {"code": "BK41", "name": "East Second Street", "category": "Speakeasy", "price": 3, "lat": 40.64366639727162, "long": -73.9785304935138, "radii": 774, "photos": 0}, {"code": "BK41", "name": "Drooz", "category": "Lounge", "price": 3, "lat": 40.635801, "long": -73.978253, "radii": 774, "photos": 0}, {"code": "BK41", "name": "Visions Lounge", "category": "Lounge", "price": 3, "lat": 40.63922127567578, "long": -73.96878941425452, "radii": 774, "photos": 0}, {"code": "BK41", "name": "The Lodge @ Sycamore", "category": "Whisky Bar", "price": 3, "lat": 40.63964985710282, "long": -73.96714830977503, "radii": 774, "photos": 0}, {"code": "BK42", "name": "Highbury Pub", "category": "Pub", "price": 1, "lat": 40.639250405973485, "long": -73.96874710045738, "radii": 1265, "photos": 0}, {"code": "BK42", "name": "Red Mist", "category": "Hookah Bar", "price": 1, "lat": 40.64345534209932, "long": -73.96993480196153, "radii": 1265, "photos": 0}, {"code": "BK42", "name": "Buffalo's Famous @ 773 Bar", "category": "Wings Joint", "price": 1, "lat": 40.63866357896448, "long": -73.96844803103076, "radii": 1265, "photos": 0}, {"code": "BK42", "name": "Nitecaps", "category": "Pub", "price": 1, "lat": 40.629236, "long": -73.965782, "radii": 1265, "photos": 0}, {"code": "BK42", "name": "Kenzo Ale House & Yard", "category": "Beer Garden", "price": 1, "lat": 40.64288500434067, "long": -73.97170123838497, "radii": 1265, "photos": 0}, {"code": "BK42", "name": "1744 Hookah Lounge", "category": "Hookah Bar", "price": 1, "lat": 40.643173, "long": -73.94866, "radii": 1265, "photos": 0}, {"code": "BK42", "name": "The Castello Plan", "category": "Wine Bar", "price": 2, "lat": 40.640323111406495, "long": -73.96650732702949, "radii": 1265, "photos": 0}, {"code": "BK42", "name": "Sycamore Flower Shop + Bar", "category": "Bar", "price": 2, "lat": 40.63967564567376, "long": -73.96715718953989, "radii": 1265, "photos": 0}, {"code": "BK42", "name": "Ox Tavern", "category": "Gastropub", "price": 2, "lat": 40.634785606760026, "long": -73.96500995637642, "radii": 1265, "photos": 0}, {"code": "BK42", "name": "Bar Chord", "category": "Bar", "price": 2, "lat": 40.63933477477298, "long": -73.96857184801993, "radii": 1265, "photos": 0}, {"code": "BK42", "name": "Lea", "category": "Italian Restaurant", "price": 2, "lat": 40.63950316759858, "long": -73.9680142223149, "radii": 1265, "photos": 0}, {"code": "BK42", "name": "773 Lounge", "category": "Bar", "price": 2, "lat": 40.63865518365365, "long": -73.96846926702048, "radii": 1265, "photos": 0}, {"code": "BK42", "name": "FIB Tattoo Bar", "category": "Bar", "price": 2, "lat": 40.645261479210234, "long": -73.95803333396556, "radii": 1265, "photos": 0}, {"code": "BK42", "name": "Wheated", "category": "Pizza Place", "price": 2, "lat": 40.646609595764446, "long": -73.97056370973587, "radii": 1265, "photos": 0}, {"code": "BK42", "name": "Sip unWINE", "category": "Caribbean Restaurant", "price": 2, "lat": 40.64093907269365, "long": -73.95596143959979, "radii": 1265, "photos": 0}, {"code": "BK42", "name": "Bahia Liquor Inc.", "category": "Bar", "price": 2, "lat": 40.640948447279456, "long": -73.94844730564462, "radii": 1265, "photos": 0}, {"code": "BK42", "name": "Manchego", "category": "Tapas Restaurant", "price": 3, "lat": 40.641104413182404, "long": -73.964284658432, "radii": 1265, "photos": 0}, {"code": "BK42", "name": "F1 Lounge", "category": "Lounge", "price": 3, "lat": 40.63972658251667, "long": -73.95481096046801, "radii": 1265, "photos": 0}, {"code": "BK42", "name": "Tonel Restaurant & Lounge", "category": "Lounge", "price": 3, "lat": 40.639944924655076, "long": -73.9523350060105, "radii": 1265, "photos": 0}, {"code": "BK42", "name": "D'Savannah Bar & Lounge", "category": "Cocktail Bar", "price": 3, "lat": 40.63524852442746, "long": -73.95031370341283, "radii": 1265, "photos": 0}, {"code": "BK42", "name": "Michelle's Cocktail Lounge", "category": "Lounge", "price": 3, "lat": 40.64783158490438, "long": -73.95588058485627, "radii": 1265, "photos": 0}, {"code": "BK42", "name": "Sip N Chat", "category": "Cocktail Bar", "price": 3, "lat": 40.63993369800585, "long": -73.95229698185568, "radii": 1265, "photos": 0}, {"code": "BK42", "name": "Plenty's Paradise", "category": "Lounge", "price": 3, "lat": 40.6459541, "long": -73.9522111, "radii": 1265, "photos": 0}, {"code": "BK42", "name": "Priv\u00e9", "category": "Lounge", "price": 3, "lat": 40.635444, "long": -73.950537, "radii": 1265, "photos": 0}, {"code": "BK42", "name": "Wattli Bar & Kitchen", "category": "Gastropub", "price": 3, "lat": 40.6357595760547, "long": -73.96312862634659, "radii": 1265, "photos": 0}, {"code": "BK42", "name": "Visions Lounge", "category": "Lounge", "price": 3, "lat": 40.63922127567578, "long": -73.96878941425452, "radii": 1265, "photos": 0}, {"code": "BK43", "name": "Jack's Pub", "category": "Pub", "price": 1, "lat": 40.624698638916016, "long": -73.96526336669922, "radii": 1020, "photos": 0}, {"code": "BK43", "name": "Hall Of Beir", "category": "Brewery", "price": 2, "lat": 40.615379, "long": -73.954573, "radii": 1020, "photos": 0}, {"code": "BK43", "name": "Roses Karaoke Bar", "category": "Karaoke Bar", "price": 2, "lat": 40.62464930123499, "long": -73.96529398444916, "radii": 1020, "photos": 0}, {"code": "BK43", "name": "Sing Song", "category": "Karaoke Bar", "price": 2, "lat": 40.61444127304177, "long": -73.948470266343, "radii": 1020, "photos": 0}, {"code": "BK43", "name": "Jack's Cocktail Bar", "category": "Cocktail Bar", "price": 3, "lat": 40.62452697753906, "long": -73.96525573730469, "radii": 1020, "photos": 0}, {"code": "BK43", "name": "Ds Gastropub", "category": "Gastropub", "price": 3, "lat": 40.624664306640625, "long": -73.96540832519531, "radii": 1020, "photos": 0}, {"code": "BK43", "name": "Eltous Night Club", "category": "Nightclub", "price": 3, "lat": 40.613140656058675, "long": -73.96309567674058, "radii": 1020, "photos": 0}, {"code": "BK44", "name": "Trio Ristorante Pizza & Grill", "category": "Pizza Place", "price": 1, "lat": 40.59953, "long": -73.95235500000001, "radii": 927, "photos": 0}, {"code": "BK44", "name": "J.P.'s Bar", "category": "Dive Bar", "price": 1, "lat": 40.600835553126096, "long": -73.9408568134846, "radii": 927, "photos": 0}, {"code": "BK44", "name": "Costello's The Claddagh Inn", "category": "Pub", "price": 1, "lat": 40.60920411715543, "long": -73.94047114963107, "radii": 927, "photos": 0}, {"code": "BK44", "name": "Charle\u015b Ale House", "category": "Bar", "price": 2, "lat": 40.605344780172686, "long": -73.94225137477214, "radii": 927, "photos": 0}, {"code": "BK44", "name": "Charles bar", "category": "Bar", "price": 2, "lat": 40.60549545288086, "long": -73.94173431396484, "radii": 927, "photos": 0}, {"code": "BK44", "name": "Royal Wine and Spirits", "category": "Wine Bar", "price": 2, "lat": 40.599616, "long": -73.949229, "radii": 927, "photos": 0}, {"code": "BK44", "name": "Feuerstadt Paul", "category": "Wine Bar", "price": 2, "lat": 40.600249, "long": -73.943531, "radii": 927, "photos": 0}, {"code": "BK44", "name": "claddaugh", "category": "Bar", "price": 2, "lat": 40.61028134952793, "long": -73.94418804894958, "radii": 927, "photos": 0}, {"code": "BK44", "name": "SHOE BOX", "category": "Karaoke Bar", "price": 2, "lat": 40.60812649279075, "long": -73.95745343027262, "radii": 927, "photos": 0}, {"code": "BK44", "name": "The Midnight Bar", "category": "Bar", "price": 2, "lat": 40.61218741491727, "long": -73.95223004391893, "radii": 927, "photos": 0}, {"code": "BK44", "name": "Maroon Lounge", "category": "Lounge", "price": 3, "lat": 40.59926211833954, "long": -73.95263850688934, "radii": 927, "photos": 0}, {"code": "BK44", "name": "\u041a\u043b\u0443\u0431 \u0421\u043e\u043d ft. DJ \u041f\u043e\u0434\u0443\u0448\u043a\u0430", "category": "Nightclub", "price": 3, "lat": 40.611757290130285, "long": -73.95021527144142, "radii": 927, "photos": 0}, {"code": "BK44", "name": "J and K Bar", "category": "Nightclub", "price": 3, "lat": 40.600663, "long": -73.940751, "radii": 927, "photos": 0}, {"code": "BK45", "name": "Bill's Bar", "category": "Pub", "price": 1, "lat": 40.61961111883627, "long": -73.91634892189333, "radii": 2072, "photos": 0}, {"code": "BK45", "name": "Footloose Cafe", "category": "Sports Bar", "price": 1, "lat": 40.616735, "long": -73.930924, "radii": 2072, "photos": 0}, {"code": "BK45", "name": "3rd & 7 Tavern", "category": "Bar", "price": 2, "lat": 40.61492953390372, "long": -73.9359826516741, "radii": 2072, "photos": 0}, {"code": "BK45", "name": "McMahon's Irish Pub", "category": "American Restaurant", "price": 2, "lat": 40.61841556124372, "long": -73.93227860202536, "radii": 2072, "photos": 0}, {"code": "BK45", "name": "Bullseye Sports Pub", "category": "Bar", "price": 2, "lat": 40.619456, "long": -73.93323, "radii": 2072, "photos": 0}, {"code": "BK45", "name": "Freeze caf\u00e9 & lounge", "category": "Lounge", "price": 2, "lat": 40.6171026377047, "long": -73.93082416647026, "radii": 2072, "photos": 0}, {"code": "BK45", "name": "Legends Bar & Grill", "category": "Bar", "price": 2, "lat": 40.617942, "long": -73.932198, "radii": 2072, "photos": 0}, {"code": "BK45", "name": "Kevin Ryan's", "category": "Bar", "price": 2, "lat": 40.61799876841412, "long": -73.93225359481187, "radii": 2072, "photos": 0}, {"code": "BK45", "name": "Christie's Pub", "category": "Bar", "price": 2, "lat": 40.61896079965939, "long": -73.93304006294132, "radii": 2072, "photos": 0}, {"code": "BK45", "name": "E Savoy Lounge", "category": "Lounge", "price": 3, "lat": 40.616492862583115, "long": -73.93047413467556, "radii": 2072, "photos": 0}, {"code": "BK45", "name": "Squadz", "category": "Lounge", "price": 3, "lat": 40.625324225713264, "long": -73.927825266836, "radii": 2072, "photos": 0}, {"code": "BK45", "name": "9ja villa", "category": "Lounge", "price": 3, "lat": 40.61889568900992, "long": -73.92868861535301, "radii": 2072, "photos": 0}, {"code": "BK45", "name": "Murette's", "category": "Lounge", "price": 3, "lat": 40.61871157531204, "long": -73.92989991201651, "radii": 2072, "photos": 0}, {"code": "BK45", "name": "Eludz", "category": "Lounge", "price": 3, "lat": 40.62537760462196, "long": -73.9277758323039, "radii": 2072, "photos": 0}, {"code": "BK45", "name": "Podium Night Club", "category": "Nightclub", "price": 3, "lat": 40.62776847461678, "long": -73.92745339862262, "radii": 2072, "photos": 0}, {"code": "BK46", "name": "Boogie Man", "category": "Sake Bar", "price": 2, "lat": 40.61527547678351, "long": -73.97191745450665, "radii": 587, "photos": 0}, {"code": "BK46", "name": "Russbeer International", "category": "Wine Bar", "price": 2, "lat": 40.614956, "long": -73.97405, "radii": 587, "photos": 0}, {"code": "BK46", "name": "M3 Lounge", "category": "Lounge", "price": 3, "lat": 40.616633694018375, "long": -73.97237661209937, "radii": 587, "photos": 0}, {"code": "BK46", "name": "Loft 59", "category": "Lounge", "price": 3, "lat": 40.616398, "long": -73.976204, "radii": 587, "photos": 0}, {"code": "BK50", "name": "Darrows", "category": "Wine Bar", "price": 2, "lat": 40.638728, "long": -73.908153, "radii": 1628, "photos": 0}, {"code": "BK50", "name": "Liquor World", "category": "Brewery", "price": 2, "lat": 40.63709608026326, "long": -73.89259329144043, "radii": 1628, "photos": 0}, {"code": "BK50", "name": "Dionysus Spirits Limited", "category": "Wine Bar", "price": 2, "lat": 40.636042, "long": -73.91258, "radii": 1628, "photos": 0}, {"code": "BK50", "name": "Gomberg seltzer works", "category": "Brewery", "price": 2, "lat": 40.64687838542786, "long": -73.91159762001008, "radii": 1628, "photos": 0}, {"code": "BK58", "name": "Footloose Cafe", "category": "Sports Bar", "price": 1, "lat": 40.616735, "long": -73.930924, "radii": 1172, "photos": 0}, {"code": "BK58", "name": "Aura Lounge", "category": "Bar", "price": 2, "lat": 40.63240350561587, "long": -73.93370333274828, "radii": 1172, "photos": 0}, {"code": "BK58", "name": "McMahon's Irish Pub", "category": "American Restaurant", "price": 2, "lat": 40.61841556124372, "long": -73.93227860202536, "radii": 1172, "photos": 0}, {"code": "BK58", "name": "Bullseye Sports Pub", "category": "Bar", "price": 2, "lat": 40.619456, "long": -73.93323, "radii": 1172, "photos": 0}, {"code": "BK58", "name": "Christie's Pub", "category": "Bar", "price": 2, "lat": 40.61896079965939, "long": -73.93304006294132, "radii": 1172, "photos": 0}, {"code": "BK58", "name": "Kevin Ryan's", "category": "Bar", "price": 2, "lat": 40.61799876841412, "long": -73.93225359481187, "radii": 1172, "photos": 0}, {"code": "BK58", "name": "Legends Bar & Grill", "category": "Bar", "price": 2, "lat": 40.617942, "long": -73.932198, "radii": 1172, "photos": 0}, {"code": "BK58", "name": "Freeze caf\u00e9 & lounge", "category": "Lounge", "price": 2, "lat": 40.6171026377047, "long": -73.93082416647026, "radii": 1172, "photos": 0}, {"code": "BK58", "name": "Squadz", "category": "Lounge", "price": 3, "lat": 40.625324225713264, "long": -73.927825266836, "radii": 1172, "photos": 0}, {"code": "BK58", "name": "E Savoy Lounge", "category": "Lounge", "price": 3, "lat": 40.616492862583115, "long": -73.93047413467556, "radii": 1172, "photos": 0}, {"code": "BK58", "name": "Pulse 48", "category": "Nightclub", "price": 3, "lat": 40.63642013147006, "long": -73.93057960438058, "radii": 1172, "photos": 0}, {"code": "BK58", "name": "Matrix Lounge", "category": "Lounge", "price": 3, "lat": 40.632413657201624, "long": -73.93371247385366, "radii": 1172, "photos": 0}, {"code": "BK58", "name": "Podium Night Club", "category": "Nightclub", "price": 3, "lat": 40.62776847461678, "long": -73.92745339862262, "radii": 1172, "photos": 0}, {"code": "BK60", "name": "ZuriLee Pizza Bar", "category": "Pizza Place", "price": 1, "lat": 40.6545125, "long": -73.95932049999999, "radii": 1370, "photos": 0}, {"code": "BK60", "name": "Salem's Hour", "category": "Caf\u00e9", "price": 1, "lat": 40.66064409489931, "long": -73.95064813148792, "radii": 1370, "photos": 0}, {"code": "BK60", "name": "The Westbury Inn", "category": "Dive Bar", "price": 1, "lat": 40.65679226769796, "long": -73.96015905249868, "radii": 1370, "photos": 0}, {"code": "BK60", "name": "Basil Pizza & Wine Bar", "category": "Pizza Place", "price": 1, "lat": 40.670357911640814, "long": -73.94216189419706, "radii": 1370, "photos": 0}, {"code": "BK60", "name": "Branch Ofc.", "category": "Cocktail Bar", "price": 2, "lat": 40.66869858193459, "long": -73.95333443091866, "radii": 1370, "photos": 0}, {"code": "BK60", "name": "Sixpoint Craft Ale", "category": "Bar", "price": 2, "lat": 40.65000451753214, "long": -73.94995157705024, "radii": 1370, "photos": 0}, {"code": "BK60", "name": "Caribbean Social", "category": "Caribbean Restaurant", "price": 2, "lat": 40.65164976900967, "long": -73.9588981879473, "radii": 1370, "photos": 0}, {"code": "BK60", "name": "V.I.P. Bar & Grill", "category": "Bar", "price": 2, "lat": 40.66806179431589, "long": -73.95061707959499, "radii": 1370, "photos": 0}, {"code": "BK60", "name": "Edie Jo\u2019s", "category": "American Restaurant", "price": 2, "lat": 40.657942, "long": -73.960655, "radii": 1370, "photos": 0}, {"code": "BK60", "name": "The Nest", "category": "Bar", "price": 2, "lat": 40.6624651883788, "long": -73.96201086291845, "radii": 1370, "photos": 0}, {"code": "BK60", "name": "Erv's On Beekman", "category": "Cocktail Bar", "price": 3, "lat": 40.660003392345345, "long": -73.96093490360836, "radii": 1370, "photos": 0}, {"code": "BK60", "name": "Parkside", "category": "Cocktail Bar", "price": 3, "lat": 40.655918124876294, "long": -73.95992828481089, "radii": 1370, "photos": 0}, {"code": "BK60", "name": "Midwood Flats", "category": "Gastropub", "price": 3, "lat": 40.659547759776515, "long": -73.96048738230687, "radii": 1370, "photos": 0}, {"code": "BK60", "name": "The Buzz Nightclub", "category": "Nightclub", "price": 3, "lat": 40.66355048728836, "long": -73.95863448433171, "radii": 1370, "photos": 0}, {"code": "BK60", "name": "Afrika House", "category": "Nightclub", "price": 3, "lat": 40.64860921892671, "long": -73.95548086000676, "radii": 1370, "photos": 0}, {"code": "BK60", "name": "Club Gravity", "category": "Nightclub", "price": 3, "lat": 40.66387116909027, "long": -73.95441, "radii": 1370, "photos": 0}, {"code": "BK60", "name": "Cafe Exhale", "category": "Lounge", "price": 3, "lat": 40.659111, "long": -73.960613, "radii": 1370, "photos": 0}, {"code": "BK60", "name": "HQ Lounge", "category": "Lounge", "price": 3, "lat": 40.646842645604906, "long": -73.94890301118647, "radii": 1370, "photos": 0}, {"code": "BK60", "name": "Temptations", "category": "Nightclub", "price": 3, "lat": 40.65040029970836, "long": -73.95809567826737, "radii": 1370, "photos": 0}, {"code": "BK61", "name": "Essence Bar & Restaurant", "category": "Southern / Soul Food Restaurant", "price": 1, "lat": 40.67763971523618, "long": -73.93579683132266, "radii": 1557, "photos": 0}, {"code": "BK61", "name": "Basil Pizza & Wine Bar", "category": "Pizza Place", "price": 1, "lat": 40.670357911640814, "long": -73.94216189419706, "radii": 1557, "photos": 0}, {"code": "BK61", "name": "Catfish", "category": "Cajun / Creole Restaurant", "price": 1, "lat": 40.67416923215286, "long": -73.9536556545598, "radii": 1557, "photos": 0}, {"code": "BK61", "name": "The Crown Inn", "category": "Bar", "price": 1, "lat": 40.67396844717776, "long": -73.95692491439155, "radii": 1557, "photos": 0}, {"code": "BK61", "name": "MoVapes Brooklyn", "category": "Hookah Bar", "price": 1, "lat": 40.67489455739755, "long": -73.9534067531706, "radii": 1557, "photos": 0}, {"code": "BK61", "name": "Q's Tavern", "category": "Pub", "price": 1, "lat": 40.67135025609235, "long": -73.95032433373711, "radii": 1557, "photos": 0}, {"code": "BK61", "name": "Fulton Ale House", "category": "Bar", "price": 2, "lat": 40.68006556425635, "long": -73.94299113134635, "radii": 1557, "photos": 0}, {"code": "BK61", "name": "King Tai", "category": "Cocktail Bar", "price": 2, "lat": 40.67608793430091, "long": -73.9496878075971, "radii": 1557, "photos": 0}, {"code": "BK61", "name": "Bar Lunatico", "category": "Bar", "price": 2, "lat": 40.68354901251034, "long": -73.93477286070559, "radii": 1557, "photos": 0}, {"code": "BK61", "name": "Lovers Rock", "category": "Bar", "price": 2, "lat": 40.683061, "long": -73.943618, "radii": 1557, "photos": 0}, {"code": "BK61", "name": "Nostrand Avenue Pub", "category": "Pub", "price": 2, "lat": 40.675904804737236, "long": -73.9499930966815, "radii": 1557, "photos": 0}, {"code": "BK61", "name": "Bed-Vyne Brew", "category": "Bar", "price": 2, "lat": 40.684750595596164, "long": -73.94431932234454, "radii": 1557, "photos": 0}, {"code": "BK61", "name": "Two Saints", "category": "Bar", "price": 2, "lat": 40.671524, "long": -73.950226, "radii": 1557, "photos": 0}, {"code": "BK61", "name": "Casablanca Cocktail Lounge", "category": "Bar", "price": 2, "lat": 40.68265835222214, "long": -73.92905345395775, "radii": 1557, "photos": 0}, {"code": "BK61", "name": "Turtles all the way down", "category": "Bar", "price": 2, "lat": 40.6850348890954, "long": -73.92957068199786, "radii": 1557, "photos": 0}, {"code": "BK61", "name": "Branch Ofc.", "category": "Cocktail Bar", "price": 2, "lat": 40.66869858193459, "long": -73.95333443091866, "radii": 1557, "photos": 0}, {"code": "BK61", "name": "Barboncino", "category": "Pizza Place", "price": 2, "lat": 40.67210399669248, "long": -73.95741215507334, "radii": 1557, "photos": 0}, {"code": "BK61", "name": "Berg'n", "category": "Beer Bar", "price": 2, "lat": 40.67726873079832, "long": -73.9573056855387, "radii": 1557, "photos": 0}, {"code": "BK61", "name": "Bad Seed", "category": "Bar", "price": 2, "lat": 40.678466111445644, "long": -73.9551393328584, "radii": 1557, "photos": 0}, {"code": "BK61", "name": "Sweet Brooklyn Bar & Grill", "category": "Bar", "price": 2, "lat": 40.67783227838921, "long": -73.94982612868611, "radii": 1557, "photos": 0}, {"code": "BK61", "name": "99 Rogers", "category": "Bar", "price": 2, "lat": 40.67440884212449, "long": -73.95278870450758, "radii": 1557, "photos": 0}, {"code": "BK61", "name": "Tilly's", "category": "Bar", "price": 2, "lat": 40.68135996965467, "long": -73.9533364664751, "radii": 1557, "photos": 0}, {"code": "BK61", "name": "UnWine Bed Stuy", "category": "Wine Bar", "price": 2, "lat": 40.68311233416574, "long": -73.94387807243022, "radii": 1557, "photos": 0}, {"code": "BK61", "name": "The Bar at Saraghina", "category": "Bar", "price": 2, "lat": 40.68384744749617, "long": -73.93524029103985, "radii": 1557, "photos": 0}, {"code": "BK61", "name": "The Bar at Peaches", "category": "Bar", "price": 2, "lat": 40.6817119165501, "long": -73.93469578741407, "radii": 1557, "photos": 0}, {"code": "BK61", "name": "Island Cz Cafe", "category": "Caribbean Restaurant", "price": 2, "lat": 40.67333779669379, "long": -73.95698735070141, "radii": 1557, "photos": 0}, {"code": "BK61", "name": "V.I.P. Bar & Grill", "category": "Bar", "price": 2, "lat": 40.66806179431589, "long": -73.95061707959499, "radii": 1557, "photos": 0}, {"code": "BK61", "name": "New Heights Bar & Grill", "category": "Cocktail Bar", "price": 3, "lat": 40.6744206086686, "long": -73.93326889929679, "radii": 1557, "photos": 0}, {"code": "BK61", "name": "Bed-Vyne Cocktail", "category": "Cocktail Bar", "price": 3, "lat": 40.682874463261875, "long": -73.94064843780026, "radii": 1557, "photos": 0}, {"code": "BK61", "name": "Sankofa Aban B & B Jazz Night And Fish Fry", "category": "Speakeasy", "price": 3, "lat": 40.68162775289926, "long": -73.94705044405684, "radii": 1557, "photos": 0}, {"code": "BK61", "name": "St Ends", "category": "Cocktail Bar", "price": 3, "lat": 40.67569038985492, "long": -73.95607002360802, "radii": 1557, "photos": 0}, {"code": "BK61", "name": "Basquiat's Bottle", "category": "Nightclub", "price": 3, "lat": 40.68052683711768, "long": -73.95263170515346, "radii": 1557, "photos": 0}, {"code": "BK61", "name": "KAI studio", "category": "Nightclub", "price": 3, "lat": 40.677934847039964, "long": -73.95669545889741, "radii": 1557, "photos": 0}, {"code": "BK61", "name": "The Corners", "category": "Cocktail Bar", "price": 3, "lat": 40.68421216493705, "long": -73.95027293874537, "radii": 1557, "photos": 0}, {"code": "BK61", "name": "New Heights Lounge", "category": "Lounge", "price": 3, "lat": 40.67445812116979, "long": -73.93319358524197, "radii": 1557, "photos": 0}, {"code": "BK61", "name": "Tree House Bk", "category": "Lounge", "price": 3, "lat": 40.68283051527199, "long": -73.93789465447448, "radii": 1557, "photos": 0}, {"code": "BK61", "name": "Brown Sugar Club", "category": "Nightclub", "price": 3, "lat": 40.68219742150348, "long": -73.93788332270073, "radii": 1557, "photos": 0}, {"code": "BK61", "name": "Electric Warehouse - The Lab", "category": "Nightclub", "price": 3, "lat": 40.67983821436948, "long": -73.94354477692643, "radii": 1557, "photos": 0}, {"code": "BK61", "name": "Brooklyn Exposure", "category": "Lounge", "price": 3, "lat": 40.675192289656664, "long": -73.95340128278845, "radii": 1557, "photos": 0}, {"code": "BK61", "name": "Club Langston", "category": "Nightclub", "price": 3, "lat": 40.67964926693372, "long": -73.95562370133405, "radii": 1557, "photos": 0}, {"code": "BK61", "name": "Secrets Lounge", "category": "Lounge", "price": 3, "lat": 40.673913974872335, "long": -73.95074815416035, "radii": 1557, "photos": 0}, {"code": "BK63", "name": "The Crown Inn", "category": "Bar", "price": 1, "lat": 40.67396844717776, "long": -73.95692491439155, "radii": 1264, "photos": 0}, {"code": "BK63", "name": "Catfish", "category": "Cajun / Creole Restaurant", "price": 1, "lat": 40.67416923215286, "long": -73.9536556545598, "radii": 1264, "photos": 0}, {"code": "BK63", "name": "Basil Pizza & Wine Bar", "category": "Pizza Place", "price": 1, "lat": 40.670357911640814, "long": -73.94216189419706, "radii": 1264, "photos": 0}, {"code": "BK63", "name": "MoVapes Brooklyn", "category": "Hookah Bar", "price": 1, "lat": 40.67489455739755, "long": -73.9534067531706, "radii": 1264, "photos": 0}, {"code": "BK63", "name": "Salem's Hour", "category": "Caf\u00e9", "price": 1, "lat": 40.66064409489931, "long": -73.95064813148792, "radii": 1264, "photos": 0}, {"code": "BK63", "name": "Q's Tavern", "category": "Pub", "price": 1, "lat": 40.67135025609235, "long": -73.95032433373711, "radii": 1264, "photos": 0}, {"code": "BK63", "name": "Branch Ofc.", "category": "Cocktail Bar", "price": 2, "lat": 40.66869858193459, "long": -73.95333443091866, "radii": 1264, "photos": 0}, {"code": "BK63", "name": "Two Saints", "category": "Bar", "price": 2, "lat": 40.671524, "long": -73.950226, "radii": 1264, "photos": 0}, {"code": "BK63", "name": "Barboncino", "category": "Pizza Place", "price": 2, "lat": 40.67210399669248, "long": -73.95741215507334, "radii": 1264, "photos": 0}, {"code": "BK63", "name": "Butter & Scotch", "category": "Cocktail Bar", "price": 2, "lat": 40.669973876986695, "long": -73.95827414401221, "radii": 1264, "photos": 0}, {"code": "BK63", "name": "Franklin Park", "category": "Bar", "price": 2, "lat": 40.67231268617883, "long": -73.95769519826537, "radii": 1264, "photos": 0}, {"code": "BK63", "name": "King Tai", "category": "Cocktail Bar", "price": 2, "lat": 40.67608793430091, "long": -73.9496878075971, "radii": 1264, "photos": 0}, {"code": "BK63", "name": "Nostrand Avenue Pub", "category": "Pub", "price": 2, "lat": 40.675904804737236, "long": -73.9499930966815, "radii": 1264, "photos": 0}, {"code": "BK63", "name": "99 Rogers", "category": "Bar", "price": 2, "lat": 40.67440884212449, "long": -73.95278870450758, "radii": 1264, "photos": 0}, {"code": "BK63", "name": "Sweet Brooklyn Bar & Grill", "category": "Bar", "price": 2, "lat": 40.67783227838921, "long": -73.94982612868611, "radii": 1264, "photos": 0}, {"code": "BK63", "name": "Island Cz Cafe", "category": "Caribbean Restaurant", "price": 2, "lat": 40.67333779669379, "long": -73.95698735070141, "radii": 1264, "photos": 0}, {"code": "BK63", "name": "V.I.P. Bar & Grill", "category": "Bar", "price": 2, "lat": 40.66806179431589, "long": -73.95061707959499, "radii": 1264, "photos": 0}, {"code": "BK63", "name": "95 South", "category": "Southern / Soul Food Restaurant", "price": 2, "lat": 40.671895329093836, "long": -73.95756406451574, "radii": 1264, "photos": 0}, {"code": "BK63", "name": "Franklin 820", "category": "Bar", "price": 2, "lat": 40.66987440108874, "long": -73.95830090681088, "radii": 1264, "photos": 0}, {"code": "BK63", "name": "The Nest", "category": "Bar", "price": 2, "lat": 40.6624651883788, "long": -73.96201086291845, "radii": 1264, "photos": 0}, {"code": "BK63", "name": "Kingston Public House", "category": "Bar", "price": 2, "lat": 40.67618483699672, "long": -73.94159058448749, "radii": 1264, "photos": 0}, {"code": "BK63", "name": "St Ends", "category": "Cocktail Bar", "price": 3, "lat": 40.67569038985492, "long": -73.95607002360802, "radii": 1264, "photos": 0}, {"code": "BK63", "name": "Erv's On Beekman", "category": "Cocktail Bar", "price": 3, "lat": 40.660003392345345, "long": -73.96093490360836, "radii": 1264, "photos": 0}, {"code": "BK63", "name": "Midwood Flats", "category": "Gastropub", "price": 3, "lat": 40.659547759776515, "long": -73.96048738230687, "radii": 1264, "photos": 0}, {"code": "BK63", "name": "Drink", "category": "Cocktail Bar", "price": 3, "lat": 40.67218652285625, "long": -73.95752333106024, "radii": 1264, "photos": 0}, {"code": "BK63", "name": "The Buzz Nightclub", "category": "Nightclub", "price": 3, "lat": 40.66355048728836, "long": -73.95863448433171, "radii": 1264, "photos": 0}, {"code": "BK63", "name": "Brooklyn Exposure", "category": "Lounge", "price": 3, "lat": 40.675192289656664, "long": -73.95340128278845, "radii": 1264, "photos": 0}, {"code": "BK63", "name": "Secrets Lounge", "category": "Lounge", "price": 3, "lat": 40.673913974872335, "long": -73.95074815416035, "radii": 1264, "photos": 0}, {"code": "BK63", "name": "Club Gravity", "category": "Nightclub", "price": 3, "lat": 40.66387116909027, "long": -73.95441, "radii": 1264, "photos": 0}, {"code": "BK63", "name": "Crave Sports Bar", "category": "Lounge", "price": 3, "lat": 40.66195070743561, "long": -73.953795, "radii": 1264, "photos": 0}, {"code": "BK63", "name": "The Palace", "category": "Nightclub", "price": 3, "lat": 40.6726693598337, "long": -73.95018370072896, "radii": 1264, "photos": 0}, {"code": "BK63", "name": "Albany Manor", "category": "Nightclub", "price": 3, "lat": 40.66020477851657, "long": -73.9395537342545, "radii": 1264, "photos": 0}, {"code": "BK64", "name": "Soda Bar", "category": "Bar", "price": 1, "lat": 40.67831607945023, "long": -73.96859389991734, "radii": 611, "photos": 0}, {"code": "BK64", "name": "Sharlene's", "category": "Bar", "price": 1, "lat": 40.677022503672795, "long": -73.97231565442323, "radii": 611, "photos": 0}, {"code": "BK64", "name": "Gold Star Beer Counter", "category": "Bar", "price": 2, "lat": 40.67523076620613, "long": -73.96675900998137, "radii": 611, "photos": 0}, {"code": "BK64", "name": "Weather Up", "category": "Cocktail Bar", "price": 2, "lat": 40.67997399383786, "long": -73.96801421863265, "radii": 611, "photos": 0}, {"code": "BK64", "name": "Bearded Lady", "category": "Cocktail Bar", "price": 2, "lat": 40.677572284655774, "long": -73.96380419205185, "radii": 611, "photos": 0}, {"code": "BK64", "name": "LaLou", "category": "Wine Bar", "price": 2, "lat": 40.680278, "long": -73.967607, "radii": 611, "photos": 0}, {"code": "BK64", "name": "Bitter & Esters", "category": "Brewery", "price": 2, "lat": 40.677091521324904, "long": -73.96368974596916, "radii": 611, "photos": 0}, {"code": "BK64", "name": "Branded Saloon", "category": "Whisky Bar", "price": 2, "lat": 40.679394059795115, "long": -73.96816545095966, "radii": 611, "photos": 0}, {"code": "BK64", "name": "Blew Smoke", "category": "Other Nightlife", "price": 2, "lat": 40.679837311308084, "long": -73.9641595238683, "radii": 611, "photos": 0}, {"code": "BK64", "name": "The Way Station", "category": "Bar", "price": 2, "lat": 40.67679405901018, "long": -73.96352626300921, "radii": 611, "photos": 0}, {"code": "BK64", "name": "Washington Commons", "category": "Bar", "price": 2, "lat": 40.675596628875155, "long": -73.96338536883863, "radii": 611, "photos": 0}, {"code": "BK64", "name": "Art Cafe", "category": "Bar", "price": 2, "lat": 40.68026395752461, "long": -73.96465828459665, "radii": 611, "photos": 0}, {"code": "BK64", "name": "Finn\u2019s Corner", "category": "Bar", "price": 2, "lat": 40.67848913531268, "long": -73.96395719494224, "radii": 611, "photos": 0}, {"code": "BK64", "name": "Eves", "category": "Bar", "price": 2, "lat": 40.67383756342453, "long": -73.96299542300979, "radii": 611, "photos": 0}, {"code": "BK64", "name": "Ode to Babel", "category": "Cocktail Bar", "price": 3, "lat": 40.679466295291746, "long": -73.96456093161021, "radii": 611, "photos": 0}, {"code": "BK64", "name": "333 Lounge", "category": "Lounge", "price": 3, "lat": 40.67782553302042, "long": -73.97279974360875, "radii": 611, "photos": 0}, {"code": "BK64", "name": "Kinanm", "category": "Lounge", "price": 3, "lat": 40.68143356774525, "long": -73.96666709353721, "radii": 611, "photos": 0}, {"code": "BK64", "name": "Milk River Restaurant", "category": "Restaurant", "price": 3, "lat": 40.680592608383165, "long": -73.96234948641714, "radii": 611, "photos": 0}, {"code": "BK64", "name": "The Social Butterfly", "category": "Nightclub", "price": 3, "lat": 40.68132658600202, "long": -73.96511352689527, "radii": 611, "photos": 0}, {"code": "BK64", "name": "Blink Lounge", "category": "Lounge", "price": 3, "lat": 40.681290695180444, "long": -73.9665911464282, "radii": 611, "photos": 0}, {"code": "BK68", "name": "Frank's Cocktail Lounge", "category": "Dive Bar", "price": 1, "lat": 40.68692406113805, "long": -73.9757383926088, "radii": 584, "photos": 0}, {"code": "BK68", "name": "The Alibi", "category": "Bar", "price": 1, "lat": 40.689518878489444, "long": -73.96944836669728, "radii": 584, "photos": 0}, {"code": "BK68", "name": "Two Steps Down", "category": "Southern / Soul Food Restaurant", "price": 1, "lat": 40.68946846411741, "long": -73.9695202722457, "radii": 584, "photos": 0}, {"code": "BK68", "name": "JL Cafe", "category": "Wine Bar", "price": 1, "lat": 40.693097507703484, "long": -73.97151569071472, "radii": 584, "photos": 0}, {"code": "BK68", "name": "Cafe Paulette", "category": "French Restaurant", "price": 2, "lat": 40.68974307741666, "long": -73.97579775071402, "radii": 584, "photos": 0}, {"code": "BK68", "name": "Imani Caribbean Kitchen & Bar", "category": "Caribbean Restaurant", "price": 2, "lat": 40.68949374298435, "long": -73.97095919400672, "radii": 584, "photos": 0}, {"code": "BK68", "name": "The Rockwell Place", "category": "Bar", "price": 2, "lat": 40.68897889322856, "long": -73.97940064213087, "radii": 584, "photos": 0}, {"code": "BK68", "name": "Habana Outpost", "category": "Cuban Restaurant", "price": 2, "lat": 40.68636414349394, "long": -73.97438814757908, "radii": 584, "photos": 0}, {"code": "BK68", "name": "Brooklyn Public House", "category": "Cocktail Bar", "price": 2, "lat": 40.68953711323655, "long": -73.96939820491572, "radii": 584, "photos": 0}, {"code": "BK68", "name": "Cardiff Giant", "category": "Bar", "price": 2, "lat": 40.69321522119974, "long": -73.96920306047333, "radii": 584, "photos": 0}, {"code": "BK68", "name": "baba cool cafe", "category": "Caf\u00e9", "price": 2, "lat": 40.68709180686477, "long": -73.97552220949956, "radii": 584, "photos": 0}, {"code": "BK68", "name": "Black Forest Brooklyn", "category": "German Restaurant", "price": 2, "lat": 40.686648454820435, "long": -73.97519389439196, "radii": 584, "photos": 0}, {"code": "BK68", "name": "Putnam's Pub & Cooker", "category": "Pub", "price": 2, "lat": 40.69320919801698, "long": -73.9690082938726, "radii": 584, "photos": 0}, {"code": "BK68", "name": "No. 7", "category": "American Restaurant", "price": 2, "lat": 40.68591599881639, "long": -73.9731678364374, "radii": 584, "photos": 0}, {"code": "BK68", "name": "Endswell", "category": "Restaurant", "price": 2, "lat": 40.686125, "long": -73.973798, "radii": 584, "photos": 0}, {"code": "BK68", "name": "DSK Brooklyn - Die Stammkneipe", "category": "Beer Garden", "price": 2, "lat": 40.685821, "long": -73.973639, "radii": 584, "photos": 0}, {"code": "BK68", "name": "Diamante's Brooklyn Cigar Lounge", "category": "Lounge", "price": 2, "lat": 40.68628937040113, "long": -73.97352795942135, "radii": 584, "photos": 0}, {"code": "BK68", "name": "Mo's Fort Greene", "category": "Bar", "price": 2, "lat": 40.687086786502725, "long": -73.97468663141946, "radii": 584, "photos": 0}, {"code": "BK68", "name": "Fulton Hall", "category": "Bar", "price": 2, "lat": 40.68784799766161, "long": -73.97854208388212, "radii": 584, "photos": 0}, {"code": "BK68", "name": "Petit Paulette", "category": "Wine Bar", "price": 2, "lat": 40.689625, "long": -73.9758, "radii": 584, "photos": 0}, {"code": "BK68", "name": "The Great Georgiana", "category": "Bar", "price": 2, "lat": 40.68945116922863, "long": -73.96918407140946, "radii": 584, "photos": 0}, {"code": "BK68", "name": "Mullane's", "category": "Bar", "price": 2, "lat": 40.6871620393933, "long": -73.97570117471452, "radii": 584, "photos": 0}, {"code": "BK68", "name": "Wine & Design", "category": "Bar", "price": 2, "lat": 40.6893486, "long": -73.97061529999999, "radii": 584, "photos": 0}, {"code": "BK68", "name": "Bar Granger", "category": "Bar", "price": 2, "lat": 40.68797464416684, "long": -73.97880104216831, "radii": 584, "photos": 0}, {"code": "BK68", "name": "Dick & Janes", "category": "Cocktail Bar", "price": 3, "lat": 40.689776850546465, "long": -73.9712367938648, "radii": 584, "photos": 0}, {"code": "BK68", "name": "BAMcaf\u00e9", "category": "Lounge", "price": 3, "lat": 40.68661791010818, "long": -73.97757232189178, "radii": 584, "photos": 0}, {"code": "BK68", "name": "Brooklyn Terrace Rooftop Lounge", "category": "Lounge", "price": 3, "lat": 40.689852743309636, "long": -73.97466090484474, "radii": 584, "photos": 0}, {"code": "BK68", "name": "Wunderbar", "category": "Lounge", "price": 3, "lat": 40.688213, "long": -73.97403, "radii": 584, "photos": 0}, {"code": "BK68", "name": "Bonita", "category": "Lounge", "price": 3, "lat": 40.689481, "long": -73.969446, "radii": 584, "photos": 0}, {"code": "BK68", "name": "The Getaway", "category": "Cocktail Bar", "price": 3, "lat": 40.69584846496464, "long": -73.97495985030913, "radii": 584, "photos": 0}, {"code": "BK69", "name": "Hops Hill", "category": "Bar", "price": 1, "lat": 40.68317494910976, "long": -73.9656058622199, "radii": 657, "photos": 0}, {"code": "BK69", "name": "Hartley's", "category": "Pub", "price": 1, "lat": 40.68260840033112, "long": -73.96135952551309, "radii": 657, "photos": 0}, {"code": "BK69", "name": "Do or Dive", "category": "Dive Bar", "price": 1, "lat": 40.68686895407821, "long": -73.95470917739651, "radii": 657, "photos": 0}, {"code": "BK69", "name": "The Alibi", "category": "Bar", "price": 1, "lat": 40.689518878489444, "long": -73.96944836669728, "radii": 657, "photos": 0}, {"code": "BK69", "name": "Two Steps Down", "category": "Southern / Soul Food Restaurant", "price": 1, "lat": 40.68946846411741, "long": -73.9695202722457, "radii": 657, "photos": 0}, {"code": "BK69", "name": "Mekelburg's", "category": "Gourmet Shop", "price": 2, "lat": 40.687570695832704, "long": -73.96237002609244, "radii": 657, "photos": 0}, {"code": "BK69", "name": "Locanda Vini & Olii", "category": "Italian Restaurant", "price": 2, "lat": 40.68485160735737, "long": -73.96292850050881, "radii": 657, "photos": 0}, {"code": "BK69", "name": "The Mayflower Social", "category": "Cocktail Bar", "price": 2, "lat": 40.68649994959821, "long": -73.966479281377, "radii": 657, "photos": 0},